~VERSION INFORMATION
 VERS.                2.0:   CWLS LOG ASCII STANDARD - VERSION 2.0
 WRAP.                 NO:   ONE LINE PER DEPTH STEP
~WELL INFORMATION
#MNEM.UNIT      DATA TYPE    INFORMATION
#----------   ------------   ------------------------------
 STRT.F          166.0000:   START DEPTH
 STOP.F         3150.5000:   STOP DEPTH
 STEP.F            0.5000:   STEP LENGTH
 NULL.          -999.2500:   NO VALUE
 COMP.    FENIX & SCISSON:   COMPANY
 WELL.  FENIX "AX" #41-34:   WELL
 FLD .              NPR 3:   FIELD
 LOC .      S34 T39N R78W:   LOCATION
 CNTY.            NATRONA:   COUNTY
 STAT.            WYOMING:   STATE
 CTRY. UNITED STATES OF AMERICA:   COUNTRY
 SRVC.       SCHLUMBERGER:   SERVICE COMPANY
 DATE.        05-FEB-1978:   LOGDATE
 API .     49025105680000:   API NUMBER
~CURVE INFORMATION
#MNEM.UNIT       API CODE    CURVE DESCRIPTION
#----------   ------------   ------------------------------
 DEPT.F                  :   
 CALD.IN     45 280 60 00:   CALIPER FROM DENSITY LOG
 RHOB.G/C3   45 350 01 00:   BULK DENSITY
 CORR.G/C3   45 356 01 00:   DENSITY CORRECTION
 SPR .MV     07 010 01 00:   SPONTANEOUS POTENTIAL
 SFL .OHMM   07 220 01 00:   SHALLOW FOCUSED LOG RESISTIVITY
 ILD .OHMM   07 120 46 00:   INDUCTION LOG DEEP RESISTIVITY
 ILM .OHMM   07 120 44 00:   INDUCTION LOG MEDIUM RESISTIVITY
 GRD .GAPI   45 310 01 00:   GAMMA RAY FROM DENSITY LOG
~PARAMETER INFORMATION
#MNEM.UNIT          VALUE    DESCRIPTION
#----------   ------------   ------------------------------
 EKB .F         5074.0000:   Kelly bushing
 EGL .F         5063.0000:   Ground level
 EDF .F            0.0000:   Drilling floor
 TD  .F         3151.0000:   Total depth
 DATE.        05-FEB-1978:   Date logged
 CLNT.            A2DTECH:   Client Code
 SL  . 330' FNL & 2310' FWL:   Surface Location
 PD  .                 GL:   Permanent Datum
 EPD .F              5063:   Elevation Permanent Datum
 LMF .                 KB:   Log Measured From
 DMF .                 KB:   Drilling Measured From
 DAPD.F                11:   Feet Above Permanent Datum
 DD  .F              3145:   Depth driller
 DL  .F              3151:   Depth logger
 BLI .F              3145:   Bottom log interval
 TLI .F               207:   Top log interval
 CS1 .IN            8.625:   Casing size
 CBD1.      8.625" @ 195':   Casing driller 1
 CBL1.F               207:   Casing logger 1
 BS1 .IN            7.875:   Bit size
 BSD1.F              3145:   Depth drilled with bit1
 DFT .            GEL/MUD:   Type fluid in hole
 DFD .                8.5:   Density
 DFV .                 31:   Viscosity
 DFPH.               10.5:   pH
 DFL .                5.6:   Fluid loss
 MSS .             MUDPIT:   Source of sample
 RMS .OHMM           1.63:   Rm
 MST .F                59:   Rm Meas. temp.
 RMF .OHMM           1.48:   Rmf
 MFST.F                59:   Rmf Meas. temp.
 RMC .OHMM           2.45:   Rmc
 MCST.F                59:   Rmc Meas. temp.
 MFSS.               MEAS:   Source Rmf.
 MCSS.               CALC:   Source Rmc.
 RMB .OHMM            .87:   Rm. at BHT
 BHT .F               110:   BHT.
 TCS .HRS            1300:   Time Circ. stopped
 TLAB.HRS            1920:   Time logger at bottom
 MRT .F               110:   Maximum recorded temp.
 LUN .               8035:   Logging unit number
 LUL .               CSPR:   Logging unit location
 ENGI.              CRAIG:   Recorded By
 WITN.         HARRINGTON:   Witnessed by
 ORIG.      2.5" 5" PRINT:   Origin of data
 UWI .     49025105680000:   Unique Well ID
 DICO. A2D TECHNOLOGIES, INC.:   Digitizing Company
~OTHER INFORMATION
~A   DEPT     CALD       RHOB       CORR        SPR        SFL        ILD        ILM         GRD  
# ...
 2717.5000     8.3074     2.4595     0.0189   -48.3561    42.4698    21.3124    43.2581    92.7901
 2718.0000     8.2630     2.4615     0.0169   -47.9630    44.8778    22.3144    46.1328    91.0115
 2718.5000     8.2630     2.5038     0.0189   -47.3727    36.3236    22.5200    35.6620    73.8178
 2719.0000     8.2630     2.5300     0.0209   -47.3737    31.0673    22.3135    30.5016    62.5530
 2719.5000     8.2630     2.5441     0.0269   -47.3747    20.7305    21.5456    22.1087    56.6241
 2720.0000     8.3335     2.5623     0.0350   -47.3758    18.9093    20.8041    20.3524    53.0668
 2720.5000     8.3815     2.5723     0.0531   -47.5739    16.9337    19.9811    17.5678    51.8810
 2721.0000     8.3984     2.5703     0.0813   -47.5749    16.1725    17.7297    16.7783    70.2605
 2721.5000     8.4152     2.5481     0.0763   -47.5759    15.8774    17.2471    16.3215    72.6320
 2722.0000     8.4211     2.4635     0.0722   -47.5769    15.7315    16.7775    15.8771    71.4462
 2722.5000     8.4211     2.4615     0.0662   -47.5780    15.1634    16.3207    15.7315    67.8889
 2723.0000     8.4211     2.4635     0.0621   -48.3672    14.7505    15.7309    15.0242    67.2960
 2723.5000     8.4211     2.4695     0.0541   -48.5653    14.3488    15.4440    14.4813    72.6320
 2724.0000     8.4211     2.4695     0.0500   -48.5665    14.2171    15.1622    14.3483    77.9680
 2724.5000     8.4211     2.4695     0.0429   -49.3556    14.0867    15.0231    13.9577    85.0826
 2725.0000     8.4211     2.4635     0.0369   -49.1600    13.8296    14.8852    13.8296    85.4563
 2725.5000     8.4147     2.4614     0.0399   -49.1606    12.7310    14.8848    13.7029    85.6755
 2726.0000     8.4084     2.4594     0.0439   -49.1615    12.4987    14.8845    13.7024    85.0826
 2726.5000     8.4020     2.4534     0.0500   -49.1625    13.0864    14.7479    13.5767    85.6755
 2727.0000     8.3957     2.4514     0.0540   -49.1633    13.4521    14.6128    13.5763    87.7035
 2727.5000     8.3893     2.4695     0.0560   -49.1645    13.3286    14.4785    13.8278    89.7314
 2728.0000     8.3830     2.4876     0.0580   -49.1655    13.3283    14.4781    13.8277    91.0115
 2728.5000     8.3815     2.5017     0.0620   -49.1665    13.0850    14.4778    13.4511    93.3830
 2729.0000     8.3815     2.4896     0.0650   -49.1673    12.7288    14.4774    13.4507    91.0115
 2729.5000     8.3815     2.4735     0.0550   -48.5775    12.4965    14.7458    13.4504    89.8257
 2730.0000     8.3815     2.4775     0.0550   -48.5783    12.6117    14.7454    13.4501    89.8257
 2730.5000     8.3815     2.5158     0.0731   -48.3825    12.9640    15.0187    13.8259    93.3830
 2731.0000     8.4211     2.5138     0.0932   -47.7925    14.0820    15.1570    14.3435    94.5688
 2731.5000     8.4505     2.5097     0.1053   -47.0055    15.0179    15.1567    15.2967    91.3475
 2732.0000     8.4799     2.5138     0.1033   -47.0066    15.4376    17.5583    15.5802    89.2328
 2732.5000     8.5001     2.5057     0.0932   -47.0076    15.4372    16.7691    15.5798    85.0826
 2733.0000     8.5001     2.4453     0.0287   -47.2056    15.0169    15.7234    15.1554    84.4897
 2733.5000     8.5001     2.4553     0.0287   -47.2066    14.4742    15.2953    15.1553    84.4897
 2734.0000     8.5001     2.5085     0.0368   -47.2077    13.5716    15.0162    14.3414    85.0826
 2734.5000     8.5171     2.5339     0.0629   -47.2087    13.6966    14.7422    14.0798    86.2684
 2735.0000     8.5341     2.5141     0.0690   -47.2097    13.9505    14.4732    14.0794    86.2684
 2735.5000     8.5396     2.4944     0.0649   -47.4077    13.3233    14.4729    13.8224    85.6755
 2736.0000     8.5001     2.4795     0.0508   -47.4087    12.7243    14.3400    13.4460    85.0826
 2736.5000     8.5001     2.4835     0.0428   -47.8038    12.6075    14.0783    13.0798    86.8613
 2737.0000     8.4598     2.4895     0.0387   -48.1988    12.3774    13.9493    12.9598    88.0470
 2737.5000     8.4195     2.5016     0.0427   -48.1998    12.3772    13.4462    12.7233    89.5709
 2738.0000     8.3815     2.5097     0.0548   -48.2008    12.2635    13.0788    12.7230    89.2328
 2738.5000     8.3815     2.5177     0.0629   -48.2018    12.1510    13.0785    12.7227    92.7901
 2739.0000     8.3815     2.5238     0.0709   -48.2028    12.1507    12.8399    12.1505    95.1617
 2739.5000     8.3815     2.5318     0.0709   -48.4007    11.7115    12.7220    11.9258    95.7545
 2740.0000     8.3815     2.5419     0.0548   -48.4017    11.7112    12.4899    11.7052    94.5688
 2740.5000     8.3815     2.5238     0.0447   -48.4027    11.4975    12.1497    11.4887    92.7901
 2741.0000     8.3815     2.4855     0.0286   -48.0099    11.1844    12.0383    11.2762    92.1972
 2741.5000     8.3815     2.4814     0.0185   -47.6171    10.8799    11.7104    11.0677    97.3258
 2742.0000     8.3815     2.4774     0.0145   -48.2088    10.4866    11.4967    10.8630    99.3119
 2742.5000     8.3914     2.4774     0.0175   -47.0284    10.3903    11.2869    10.6621   102.8692
 2743.0000     8.4012     2.5036     0.0255   -47.0295    10.2949    10.6807    10.2949   101.8595
 2743.5000     8.4111     2.5157     0.0336   -46.8336    10.1070    10.3898    10.1070   100.8498
 2744.0000     8.4209     2.5358     0.0477   -46.8346     9.7418    10.2944     9.8318    99.8402
 2744.5000     8.4211     2.5479     0.0497   -46.4419     9.5640    10.2940     9.3897    99.9047
 2745.0000     8.4211     2.5438     0.0517   -46.4429     8.6436     9.4762     8.9675    99.9047
 2745.5000     8.4606     2.5338     0.0557   -46.6408     7.7403     8.8038     8.2549   100.9144
 2746.0000     8.4606     2.5398     0.0617   -46.6419     6.4992     8.1043     8.1793   101.6834
 2746.5000     8.4920     2.5338     0.0658   -47.2335     6.1502     7.6690     7.7376   105.2407
 2747.0000     8.5001     2.5297     0.0839   -48.0220     6.1500     7.1249     7.3198   105.8336
 2747.5000     8.5792     2.5217     0.0738   -48.4170     6.2066     6.4987     6.9245   110.8804
 2748.0000     8.5792     2.5217     0.0839   -48.4178     6.0933     6.3801     6.5505   111.1696
 2748.5000     8.6167     2.5438     0.0919   -48.6158     5.5578     6.2636     6.0373   112.9482
 2749.0000     8.6542     2.5478     0.1000   -49.0103     5.1162     6.1493     5.9820   113.4058
 2749.5000     8.6582     2.5478     0.1060   -49.0113     5.0692     6.0371     5.8728   113.5411
 2750.0000     8.6582     2.5478     0.0862   -49.0123     4.9311     5.8726     5.6605   113.5411
 2750.5000     8.6187     2.5377     0.0673   -48.8165     4.8858     5.6603     5.5063   117.0984
 2751.0000     8.6061     2.5257     0.0546   -48.2276     5.0223     5.6083     5.3563   119.4700
 2751.5000     8.5935     2.5216     0.0465   -48.0309     5.0222     5.5568     5.2585   119.9736
 2752.0000     8.5808     2.5176     0.0435   -48.0323     4.9761     5.6598     5.1625   119.4700
 2752.5000     8.6187     2.5196     0.0475   -47.8365     5.0219     5.6597     5.1624   120.0628
 2753.0000     8.6187     2.5256     0.0536   -47.8375     4.9758     5.7645     5.1622   120.6557
 2753.5000     8.6187     2.5216     0.0536   -47.6417     4.9756     6.0914     5.2097   120.0628
 2754.0000     8.6187     2.5135     0.0536   -47.4459     5.0215     6.8019     5.3553   118.8771
 2754.5000     8.6187     2.5196     0.0515   -46.6597     5.0677     6.8018     5.8173   115.3198
 2755.0000     8.6187     2.5357     0.0515   -46.4639     5.9798     7.1217     6.3191   116.9251
 2755.5000     8.6187     2.5437     0.0556   -46.4650     5.9798     7.7361     6.8014   118.5305
 2756.0000     8.5792     2.5417     0.0616   -46.4660     9.5582     7.8796     8.4810   119.4700
 2756.5000     8.6187     2.5357     0.0696   -46.4671    15.1380     9.5578     8.9619   114.7269
 2757.0000     8.6187     2.5216     0.0716   -46.4681    14.0639    10.0074     9.2975   102.2763
 2757.5000     8.6187     2.5236     0.0726   -46.6659    13.6811    10.4781    10.0071    99.3119
