~VERSION INFORMATION
 VERS.                2.0:   CWLS LOG ASCII STANDARD - VERSION 2.0
 WRAP.                 NO:   ONE LINE PER DEPTH STEP
~WELL INFORMATION
#MNEM.UNIT      DATA TYPE    INFORMATION
#----------   ------------   ------------------------------
 STRT.F          166.0000:   START DEPTH
 STOP.F         3150.5000:   STOP DEPTH
 STEP.F            0.5000:   STEP LENGTH
 NULL.          -999.2500:   NO VALUE
 COMP.    FENIX & SCISSON:   COMPANY
 WELL.  FENIX "AX" #41-34:   WELL
 FLD .              NPR 3:   FIELD
 LOC .      S34 T39N R78W:   LOCATION
 CNTY.            NATRONA:   COUNTY
 STAT.            WYOMING:   STATE
 CTRY. UNITED STATES OF AMERICA:   COUNTRY
 SRVC.       SCHLUMBERGER:   SERVICE COMPANY
 DATE.        05-FEB-1978:   LOGDATE
 API .     49025105680000:   API NUMBER
~CURVE INFORMATION
#MNEM.UNIT       API CODE    CURVE DESCRIPTION
#----------   ------------   ------------------------------
 DEPT.F                  :   
 CALD.IN     45 280 60 00:   CALIPER FROM DENSITY LOG
 RHOB.G/C3   45 350 01 00:   BULK DENSITY
 CORR.G/C3   45 356 01 00:   DENSITY CORRECTION
 SPR .MV     07 010 01 00:   SPONTANEOUS POTENTIAL
 SFL .OHMM   07 220 01 00:   SHALLOW FOCUSED LOG RESISTIVITY
 ILD .OHMM   07 120 46 00:   INDUCTION LOG DEEP RESISTIVITY
 ILM .OHMM   07 120 44 00:   INDUCTION LOG MEDIUM RESISTIVITY
 GRD .GAPI   45 310 01 00:   GAMMA RAY FROM DENSITY LOG
~PARAMETER INFORMATION
#MNEM.UNIT          VALUE    DESCRIPTION
#----------   ------------   ------------------------------
 EKB .F         5074.0000:   Kelly bushing
 EGL .F         5063.0000:   Ground level
 EDF .F            0.0000:   Drilling floor
 TD  .F         3151.0000:   Total depth
 DATE.        05-FEB-1978:   Date logged
 CLNT.            A2DTECH:   Client Code
 SL  . 330' FNL & 2310' FWL:   Surface Location
 PD  .                 GL:   Permanent Datum
 EPD .F              5063:   Elevation Permanent Datum
 LMF .                 KB:   Log Measured From
 DMF .                 KB:   Drilling Measured From
 DAPD.F                11:   Feet Above Permanent Datum
 DD  .F              3145:   Depth driller
 DL  .F              3151:   Depth logger
 BLI .F              3145:   Bottom log interval
 TLI .F               207:   Top log interval
 CS1 .IN            8.625:   Casing size
 CBD1.      8.625" @ 195':   Casing driller 1
 CBL1.F               207:   Casing logger 1
 BS1 .IN            7.875:   Bit size
 BSD1.F              3145:   Depth drilled with bit1
 DFT .            GEL/MUD:   Type fluid in hole
 DFD .                8.5:   Density
 DFV .                 31:   Viscosity
 DFPH.               10.5:   pH
 DFL .                5.6:   Fluid loss
 MSS .             MUDPIT:   Source of sample
 RMS .OHMM           1.63:   Rm
 MST .F                59:   Rm Meas. temp.
 RMF .OHMM           1.48:   Rmf
 MFST.F                59:   Rmf Meas. temp.
 RMC .OHMM           2.45:   Rmc
 MCST.F                59:   Rmc Meas. temp.
 MFSS.               MEAS:   Source Rmf.
 MCSS.               CALC:   Source Rmc.
 RMB .OHMM            .87:   Rm. at BHT
 BHT .F               110:   BHT.
 TCS .HRS            1300:   Time Circ. stopped
 TLAB.HRS            1920:   Time logger at bottom
 MRT .F               110:   Maximum recorded temp.
 LUN .               8035:   Logging unit number
 LUL .               CSPR:   Logging unit location
 ENGI.              CRAIG:   Recorded By
 WITN.         HARRINGTON:   Witnessed by
 ORIG.      2.5" 5" PRINT:   Origin of data
 UWI .     49025105680000:   Unique Well ID
 DICO. A2D TECHNOLOGIES, INC.:   Digitizing Company
~OTHER INFORMATION
~A   DEPT     CALD       RHOB       CORR        SPR        SFL        ILD        ILM         GRD  
# ...
 3122.5000     8.0144     2.5288     0.1211   -42.7090     3.1042     3.5974     3.3408   121.2056
 3123.0000     8.0533     2.5107     0.1111   -43.4983     3.0192     3.5511     3.3402   123.5800
 3123.5000     8.0531     2.5026     0.0970   -44.0912     2.9910     3.5053     3.3395   127.7355
 3124.0000     8.0528     2.5066     0.0839   -44.0948     3.0179     3.4635     3.3387   133.6731
 3124.5000     8.0526     2.5127     0.0778   -44.4913     3.1301     3.4633     3.2472   134.8601
 3125.0000     8.0523     2.5167     0.0778   -44.6914     3.1874     3.4040     3.2763   134.2658
 3125.5000     8.0520     2.5187     0.0688   -44.6951     3.2161     3.3458     3.2459   130.1081
 3126.0000     8.0517     2.4965     0.0627   -44.6988     3.1569     3.2747     3.2154   124.7625
 3126.5000     8.0515     2.4643     0.0587   -44.7025     3.1853     3.2743     3.1562   122.9797
 3127.0000     8.0512     2.4764     0.0688   -44.3132     2.7747     3.2741     3.0138   124.1669
 3127.5000     8.0510     2.4844     0.0808   -44.3169     2.6014     3.2312     2.9584   125.9477
 3128.0000     8.0903     2.5146     0.0869   -43.5346     2.6008     3.1888     2.9040   127.1350
 3128.5000     8.0900     2.5166     0.0899   -43.1452     2.6485     3.1469     2.8504   128.9161
 3129.0000     8.0898     2.5005     0.0838   -42.7559     2.7218     3.1056     2.8497   130.1035
 3129.5000     8.0896     2.4904     0.0798   -42.7602     2.8228     3.0649     2.8491   130.1027
 3130.0000     8.0497     2.4844     0.0818   -41.5840     2.9547     3.0247     2.8483   128.9141
 3130.5000     8.0493     2.4844     0.0879   -41.5875     2.9544     2.9815     2.8480   127.1310
 3131.0000     8.0324     2.4823     0.0879   -40.6084     2.9538     2.9810     2.8213   125.3482
 3131.5000     8.0155     2.4682     0.0858   -40.4154     2.8207     2.9719     2.8206   127.2681
 3132.0000     8.0091     2.4541     0.0778   -40.4189     2.3681     2.9628     2.7686   129.5054
 3132.5000     7.9691     2.4380     0.0536   -40.4231     2.2205     2.9516     2.7426   131.2868
 3133.0000     7.9689     2.4380     0.0476   -40.8191     2.1794     2.9669     2.6920   132.4749
 3133.5000     7.9289     2.4440     0.0476   -41.0199     2.3237     2.9823     2.7415   136.0393
 3134.0000     7.9684     2.4823     0.0657   -41.6131     2.8173     3.0042     2.7983   136.6332
 3134.5000     7.9284     2.5044     0.0919   -42.2065     2.9221     3.0593     2.8428   131.8788
 3135.0000     7.9282     2.5226     0.0979   -42.7998     2.9757     3.1156     2.8687   128.9071
 3135.5000     7.9279     2.5266     0.1060   -43.1966     2.8415     3.2317     2.9209   129.5005
 3136.0000     7.9277     2.5286     0.1060   -43.3976     2.6885     3.3824     2.9745   136.0371
 3136.5000     7.9275     2.5225     0.0878   -43.5978     2.7377     3.6397     3.0288   137.2251
 3137.0000     7.9271     2.5104     0.0757   -43.6015     3.1415     3.7481     3.2412   136.0361
 3137.5000     7.9268     2.4943     0.0576   -43.8018     3.9513     3.9152     3.5716   134.2525
 3138.0000     7.9266     2.4842     0.0495   -44.0020     5.0171     3.9150     3.6042   134.8465
 3138.5000     7.9263     2.4782     0.0385   -44.2023     6.0832     4.0980     3.7041   129.4964
 3139.0000     7.9261     2.4943     0.0485   -44.2060     6.0265     4.1731     3.7720   128.9017
 3139.5000     7.9258     2.5084     0.0636   -44.0130     5.9166     4.2113     3.8768   127.7117
 3140.0000     7.9256     2.5265     0.0815   -44.0167     3.2547     4.7437     3.9841   124.7386
 3140.5000     7.9114     2.5426     0.1039   -43.2336     3.1079     5.0117     4.1699   124.1435
 3141.0000     7.8972     2.5325     0.1039   -43.2372     4.0562     5.0108     4.1697   124.1424
 3141.5000     7.8851     2.5144     0.0769   -42.4541     4.7847     5.0560     4.2460   125.9253
 3142.0000     7.8452     2.4922     0.0495   -42.4577     5.9095     5.0550     4.5271   128.8969
 3142.5000     7.8449     2.4862     0.0586   -41.6744     5.9629     5.0537     4.6956   129.4909
 3143.0000     7.8446     2.5587     0.0666   -41.4813     5.9616     5.0527     5.0527   128.8955
 3143.5000     7.8443     2.5708     0.0868   -41.2881     6.1835     5.0516     5.5889   128.8950
 3144.0000     7.8441     2.5829     0.1049   -40.8989     6.5930     5.0508     6.5930   133.0564
 3144.5000     7.8438     2.5667     0.1110   -40.9010     6.8387     5.0242     6.8384   134.2452
 3145.0000     7.8436     2.5506     0.1049   -40.7085  -999.2500  -999.2500  -999.2500   134.8392
 3145.5000     7.8433     2.5526     0.0868  -999.2500  -999.2500  -999.2500  -999.2500   134.8387
 3146.0000     7.8431     2.5607     0.0989  -999.2500  -999.2500  -999.2500  -999.2500   133.6488
 3146.5000     7.7931     2.5728     0.1110  -999.2500  -999.2500  -999.2500  -999.2500   131.8642
 3147.0000     7.7928     2.5728     0.1150  -999.2500  -999.2500  -999.2500  -999.2500   129.4849
 3147.5000     7.7926     2.5748     0.1170  -999.2500  -999.2500  -999.2500  -999.2500   124.1314
 3148.0000     7.7922     2.5828     0.1190  -999.2500  -999.2500  -999.2500  -999.2500   122.9409
 3148.5000     7.7920     2.5868     0.1311  -999.2500  -999.2500  -999.2500  -999.2500   124.7245
 3149.0000     7.7917     2.5848     0.1412  -999.2500  -999.2500  -999.2500  -999.2500   126.5079
 3149.5000     7.7518     2.5687     0.1593  -999.2500  -999.2500  -999.2500  -999.2500   126.8018
 3150.0000  -999.2500     2.5505     0.1714  -999.2500  -999.2500  -999.2500  -999.2500   126.8011
 3150.5000  -999.2500  -999.2500     0.2369  -999.2500  -999.2500  -999.2500  -999.2500  -999.2500
