~VERSION INFORMATION
 VERS.                2.0:   CWLS LOG ASCII STANDARD - VERSION 2.0
 WRAP.                 NO:   ONE LINE PER DEPTH STEP
~WELL INFORMATION
#MNEM.UNIT      DATA TYPE    INFORMATION
#----------   ------------   ------------------------------
 STRT.F          166.0000:   START DEPTH
 STOP.F         3150.5000:   STOP DEPTH
 STEP.F            0.5000:   STEP LENGTH
 NULL.          -999.2500:   NO VALUE
 COMP.    FENIX & SCISSON:   COMPANY
 WELL.  FENIX "AX" #41-34:   WELL
 FLD .              NPR 3:   FIELD
 LOC .      S34 T39N R78W:   LOCATION
 CNTY.            NATRONA:   COUNTY
 STAT.            WYOMING:   STATE
 CTRY. UNITED STATES OF AMERICA:   COUNTRY
 SRVC.       SCHLUMBERGER:   SERVICE COMPANY
 DATE.        05-FEB-1978:   LOGDATE
 API .     49025105680000:   API NUMBER
~CURVE INFORMATION
#MNEM.UNIT       API CODE    CURVE DESCRIPTION
#----------   ------------   ------------------------------
 DEPT.F                  :   
 CALD.IN     45 280 60 00:   CALIPER FROM DENSITY LOG
 RHOB.G/C3   45 350 01 00:   BULK DENSITY
 CORR.G/C3   45 356 01 00:   DENSITY CORRECTION
 SPR .MV     07 010 01 00:   SPONTANEOUS POTENTIAL
 SFL .OHMM   07 220 01 00:   SHALLOW FOCUSED LOG RESISTIVITY
 ILD .OHMM   07 120 46 00:   INDUCTION LOG DEEP RESISTIVITY
 ILM .OHMM   07 120 44 00:   INDUCTION LOG MEDIUM RESISTIVITY
 GRD .GAPI   45 310 01 00:   GAMMA RAY FROM DENSITY LOG
~PARAMETER INFORMATION
#MNEM.UNIT          VALUE    DESCRIPTION
#----------   ------------   ------------------------------
 EKB .F         5074.0000:   Kelly bushing
 EGL .F         5063.0000:   Ground level
 EDF .F            0.0000:   Drilling floor
 TD  .F         3151.0000:   Total depth
 DATE.        05-FEB-1978:   Date logged
 CLNT.            A2DTECH:   Client Code
 SL  . 330' FNL & 2310' FWL:   Surface Location
 PD  .                 GL:   Permanent Datum
 EPD .F              5063:   Elevation Permanent Datum
 LMF .                 KB:   Log Measured From
 DMF .                 KB:   Drilling Measured From
 DAPD.F                11:   Feet Above Permanent Datum
 DD  .F              3145:   Depth driller
 DL  .F              3151:   Depth logger
 BLI .F              3145:   Bottom log interval
 TLI .F               207:   Top log interval
 CS1 .IN            8.625:   Casing size
 CBD1.      8.625" @ 195':   Casing driller 1
 CBL1.F               207:   Casing logger 1
 BS1 .IN            7.875:   Bit size
 BSD1.F              3145:   Depth drilled with bit1
 DFT .            GEL/MUD:   Type fluid in hole
 DFD .                8.5:   Density
 DFV .                 31:   Viscosity
 DFPH.               10.5:   pH
 DFL .                5.6:   Fluid loss
 MSS .             MUDPIT:   Source of sample
 RMS .OHMM           1.63:   Rm
 MST .F                59:   Rm Meas. temp.
 RMF .OHMM           1.48:   Rmf
 MFST.F                59:   Rmf Meas. temp.
 RMC .OHMM           2.45:   Rmc
 MCST.F                59:   Rmc Meas. temp.
 MFSS.               MEAS:   Source Rmf.
 MCSS.               CALC:   Source Rmc.
 RMB .OHMM            .87:   Rm. at BHT
 BHT .F               110:   BHT.
 TCS .HRS            1300:   Time Circ. stopped
 TLAB.HRS            1920:   Time logger at bottom
 MRT .F               110:   Maximum recorded temp.
 LUN .               8035:   Logging unit number
 LUL .               CSPR:   Logging unit location
 ENGI.              CRAIG:   Recorded By
 WITN.         HARRINGTON:   Witnessed by
 ORIG.      2.5" 5" PRINT:   Origin of data
 UWI .     49025105680000:   Unique Well ID
 DICO. A2D TECHNOLOGIES, INC.:   Digitizing Company
~OTHER INFORMATION
~A   DEPT     CALD       RHOB       CORR        SPR        SFL        ILD        ILM         GRD  
# ...
 2555.5000     8.9453     2.6201     0.0812   -50.0628     7.9017     8.2730     8.1224   125.2465
 2556.0000     8.9055     2.6060     0.0791   -50.0598     7.2770     8.1999     7.7603   122.8607
 2556.5000     8.9054     2.5858     0.0609   -50.0569     6.9525     7.9796     7.6917   122.8588
 2557.0000     8.9052     2.5414     0.0488   -50.0540     6.9547     7.9820     7.6936   124.6376
 2557.5000     8.9051     2.5353     0.0286   -50.0511     7.0211     7.9845     7.5569   128.2008
 2558.0000     8.9050     2.5414     0.0225   -50.0481     7.0885     7.9870     7.6069   128.7916
 2558.5000     8.9049     2.5474     0.0468   -50.0452     7.1566     7.9895     7.6299   131.7616
 2559.0000     8.9048     2.5575     0.0508   -50.0423     7.4258     7.9920     7.7664   134.1345
 2559.5000     8.9047     2.5535     0.0548   -49.0554     7.4281     7.9950     7.7753   134.1280
 2560.0000     8.9046     2.5494     0.0508   -49.0542     7.4304     8.0708     7.7080   131.7447
 2560.5000     8.9441     2.5454     0.0386   -49.0513     7.2974     8.1478     7.5705   125.1964
 2561.0000     8.9440     2.5414     0.0306   -48.8518     7.2343     8.2256     7.5729   123.4083
 2561.5000     9.0154     2.5313     0.0225   -48.8488     7.3020     8.2282     7.5748   123.4023
 2562.0000     9.0627     2.5313     0.0265   -48.8453     7.5776     8.2307     7.6476   121.6144
 2562.5000     9.0229     2.5575     0.0487   -50.0211     7.7205     8.2338     7.8652   121.0139
 2563.0000     9.0228     2.5858     0.0648   -50.0182     7.5838     8.2359     7.8661   121.0101
 2563.5000     9.0227     2.5979     0.0769   -50.0153     7.5847     8.3928     7.7966   122.3145
 2564.0000     9.0226     2.5999     0.0789   -50.4049     7.3134     8.4536     7.7991   122.7841
 2564.5000     9.0622     2.5918     0.0728   -50.5992     7.1168     8.5148     8.0190   119.2110
 2565.0000     9.0620     2.5797     0.0668   -50.7928     7.5224     8.5765     7.9487   119.2072
 2565.5000     9.0618     2.5696     0.0627   -51.1831     7.6647     8.6386     7.9511   119.7959
 2566.0000     9.0617     2.5615     0.0627   -51.1802     7.6667     8.7200     7.9536   120.3866
 2566.5000     9.1012     2.5676     0.0506   -51.1779     7.6691     8.7211     8.0295   119.7883
 2567.0000     9.1011     2.5676     0.0486   -50.7812     7.5318     8.5661     8.0320   119.7825
 2567.5000     9.1010     2.5655     0.0486   -50.5816     7.8171     8.3369     8.0346   119.7787
 2568.0000     9.1009     2.5655     0.0506   -50.5787     8.0371     8.2617     8.0371   119.7730
 2568.5000     9.1007     2.5776     0.0606   -50.1826     7.6791     8.1887     7.8947   116.7974
 2569.0000     9.1006     2.5897     0.0687   -49.7864     7.6810     8.1158     7.8957   116.3072
 2569.5000     9.1005     2.5958     0.0707   -50.1767     6.8814     7.9710     7.4745   115.8171
 2570.0000     9.1004     2.5938     0.0707   -50.1738     6.0531     7.8283     7.0759   117.3767
 2570.5000     9.1002     2.5918     0.0707   -49.5809     6.1676     7.6882     6.9488   122.1270
 2571.0000     9.1001     2.5857     0.0707   -48.5948     6.7628     7.4131     6.9509   128.6577
 2571.5000     9.1000     2.5817     0.0686   -47.4114     7.1478     7.3476     7.0825   129.2478
 2572.0000     9.0999     2.5716     0.0606   -47.2124     6.5830     7.1501     7.0847   127.4590
 2572.5000     9.0998     2.5433     0.0505   -46.8167     6.0624     6.9591     6.9578   120.9191
 2573.0000     9.0996     2.5252     0.0383   -47.0097     5.9539     6.8333     6.7708   120.3192
 2573.5000     9.0996     2.5252     0.0484   -47.7934     6.0662     6.7729     6.7729   123.2860
 2574.0000     9.0994     2.5514     0.0585   -47.7904     5.9576     6.7130     6.5309   126.2525
 2574.5000     9.0993     2.5474     0.0565   -48.1807     5.3865     6.6537     6.5932   134.5634
 2575.0000     9.0991     2.5333     0.0464   -48.3744     5.0063     6.5953     6.5941   138.3165
 2575.5000     9.0990     2.5312     0.0343   -48.7642     5.1007     6.6582     6.9708   142.0697
 2576.0000     9.0989     2.5373     0.0423   -48.7619     5.8031     6.7830     6.7838   143.4582
 2576.5000     9.0988     2.5373     0.0463   -49.1529     6.7239     7.0292     6.7859   143.4514
 2577.0000     9.0986     2.5312     0.0483   -49.5427     6.5431     7.2386     7.0417   141.0710
 2577.5000     9.0985     2.5252     0.0443   -50.9160     6.7280     7.2408     6.9157   139.2802
 2578.0000     9.0588     2.5272     0.0402   -51.1103     6.8550     7.7243     7.1768   133.3390
 2578.5000     9.0587     2.5252     0.0342   -51.6975     7.1134     7.8700     7.3122   127.9877
 2579.0000     9.0585     2.5312     0.0342   -51.6946     7.5194     7.9446     7.5883   127.3898
 2579.5000     9.0584     2.5413     0.0442   -51.6917     7.7325     7.9831     7.6608   125.6022
 2580.0000     9.0583     2.5615     0.0503   -51.6888     7.1871     8.0240     7.6632   122.6291
 2580.5000     9.0582     2.5776     0.0563   -51.6859     6.9286     8.0260     7.6656   117.2792
 2581.0000     9.0581     2.5836     0.0563   -51.6830     6.8678     8.0285     7.6680   115.1611
 2581.5000     9.0580     2.5776     0.0523   -51.2867     7.1276     8.0310     7.6703   113.0430
 2582.0000     9.0579     2.5735     0.0482   -51.2837     7.1289     7.9605     7.6026   110.9249
 2582.5000     9.0578     2.5594     0.0442   -50.2972     7.1311     7.9615     7.3304   111.3253
 2583.0000     9.0049     2.5514     0.0442   -49.5074     7.1992     7.8916     7.3327   115.2153
 2583.5000     8.9520     2.5473     0.0441   -48.7157     7.2014     7.8224     7.3346   119.0320
 2584.0000     8.8991     2.5493     0.0441   -48.7145     7.0725     7.8971     7.3368   118.7282
 2584.5000     8.8989     2.5554     0.0502   -48.1213     6.8823     7.9725     7.3391   118.1289
 2585.0000     8.8989     2.5655     0.0542   -47.9216     6.4559     7.9750     7.3414   117.5316
 2585.5000     8.8987     2.5675     0.0562   -47.9186     6.5175     8.0511     7.3432   116.9343
 2586.0000     8.8986     2.5574     0.0461   -47.9156     6.8257     8.1285     7.4143   121.6768
 2586.5000     8.8985     2.5513     0.0400   -47.9127     7.6943     8.3573     7.7658   124.6405
 2587.0000     8.8984     2.5513     0.0400   -48.1065     7.9849     8.5155     8.1346   126.4149
 2587.5000     8.8982     2.5634     0.0481   -48.3002     8.0612     8.4403     8.1356   124.6305
 2588.0000     8.8982     2.5795     0.0561   -48.2973     8.1392     8.5208     8.1381   115.7231
 2588.5000     8.8980     2.5755     0.0642   -48.8846     8.1407     8.6017     8.1407   111.2739
 2589.0000     8.8979     2.5614     0.0621   -49.2746     8.1432     9.0096     8.1432   111.2678
 2589.5000     8.8978     2.5473     0.0601   -49.8620     8.1458     8.6887     8.1458   111.2618
 2590.0000     8.8977     2.5433     0.0520   -50.6451     7.9262     8.6898     8.1483   111.8512
 2590.5000     8.8975     2.5433     0.0480   -50.6433     7.3671     8.4556     8.0024   112.4409
 2591.0000     8.8975     2.5473     0.0420   -50.6421     6.9744     8.3047     8.0783   112.4356
 2591.5000     8.8973     2.5473     0.0399   -50.4407     6.6640     8.0814     7.7896   112.4308
 2592.0000     8.8972     2.5574     0.0399   -50.4377     6.4840     7.7222     7.2397   114.7995
 2592.5000     8.8971     2.5654     0.0439   -50.4348     6.4860     7.6520     7.1756   115.3909
 2593.0000     8.8970     2.5795     0.0661   -50.4319     6.6084     7.3786     7.1779   122.3504
 2593.5000     8.8969     2.5815     0.0721   -50.4290     6.6715     7.3804     7.1801   126.6502
 2594.0000     8.8968     2.5715     0.0781   -50.4260     6.4326     7.3836     7.1823   126.6462
 2594.5000     8.8966     2.5614     0.0701   -50.4231     6.2023     7.5206     7.1846   125.3322
 2595.0000     8.8965     2.5513     0.0539   -50.4202     6.1475     7.4854     7.1868   124.0182
 2595.5000     8.8964     2.5513     0.0419   -50.4172     6.1494     7.4504     7.1891   122.7042
