~VERSION INFORMATION
 VERS.                2.0:   CWLS LOG ASCII STANDARD - VERSION 2.0
 WRAP.                 NO:   ONE LINE PER DEPTH STEP
~WELL INFORMATION
#MNEM.UNIT      DATA TYPE    INFORMATION
#----------   ------------   ------------------------------
 STRT.F          166.0000:   START DEPTH
 STOP.F         3150.5000:   STOP DEPTH
 STEP.F            0.5000:   STEP LENGTH
 NULL.          -999.2500:   NO VALUE
 COMP.    FENIX & SCISSON:   COMPANY
 WELL.  FENIX "AX" #41-34:   WELL
 FLD .              NPR 3:   FIELD
 LOC .      S34 T39N R78W:   LOCATION
 CNTY.            NATRONA:   COUNTY
 STAT.            WYOMING:   STATE
 CTRY. UNITED STATES OF AMERICA:   COUNTRY
 SRVC.       SCHLUMBERGER:   SERVICE COMPANY
 DATE.        05-FEB-1978:   LOGDATE
 API .     49025105680000:   API NUMBER
~CURVE INFORMATION
#MNEM.UNIT       API CODE    CURVE DESCRIPTION
#----------   ------------   ------------------------------
 DEPT.F                  :   
 CALD.IN     45 280 60 00:   CALIPER FROM DENSITY LOG
 RHOB.G/C3   45 350 01 00:   BULK DENSITY
 CORR.G/C3   45 356 01 00:   DENSITY CORRECTION
 SPR .MV     07 010 01 00:   SPONTANEOUS POTENTIAL
 SFL .OHMM   07 220 01 00:   SHALLOW FOCUSED LOG RESISTIVITY
 ILD .OHMM   07 120 46 00:   INDUCTION LOG DEEP RESISTIVITY
 ILM .OHMM   07 120 44 00:   INDUCTION LOG MEDIUM RESISTIVITY
 GRD .GAPI   45 310 01 00:   GAMMA RAY FROM DENSITY LOG
~PARAMETER INFORMATION
#MNEM.UNIT          VALUE    DESCRIPTION
#----------   ------------   ------------------------------
 EKB .F         5074.0000:   Kelly bushing
 EGL .F         5063.0000:   Ground level
 EDF .F            0.0000:   Drilling floor
 TD  .F         3151.0000:   Total depth
 DATE.        05-FEB-1978:   Date logged
 CLNT.            A2DTECH:   Client Code
 SL  . 330' FNL & 2310' FWL:   Surface Location
 PD  .                 GL:   Permanent Datum
 EPD .F              5063:   Elevation Permanent Datum
 LMF .                 KB:   Log Measured From
 DMF .                 KB:   Drilling Measured From
 DAPD.F                11:   Feet Above Permanent Datum
 DD  .F              3145:   Depth driller
 DL  .F              3151:   Depth logger
 BLI .F              3145:   Bottom log interval
 TLI .F               207:   Top log interval
 CS1 .IN            8.625:   Casing size
 CBD1.      8.625" @ 195':   Casing driller 1
 CBL1.F               207:   Casing logger 1
 BS1 .IN            7.875:   Bit size
 BSD1.F              3145:   Depth drilled with bit1
 DFT .            GEL/MUD:   Type fluid in hole
 DFD .                8.5:   Density
 DFV .                 31:   Viscosity
 DFPH.               10.5:   pH
 DFL .                5.6:   Fluid loss
 MSS .             MUDPIT:   Source of sample
 RMS .OHMM           1.63:   Rm
 MST .F                59:   Rm Meas. temp.
 RMF .OHMM           1.48:   Rmf
 MFST.F                59:   Rmf Meas. temp.
 RMC .OHMM           2.45:   Rmc
 MCST.F                59:   Rmc Meas. temp.
 MFSS.               MEAS:   Source Rmf.
 MCSS.               CALC:   Source Rmc.
 RMB .OHMM            .87:   Rm. at BHT
 BHT .F               110:   BHT.
 TCS .HRS            1300:   Time Circ. stopped
 TLAB.HRS            1920:   Time logger at bottom
 MRT .F               110:   Maximum recorded temp.
 LUN .               8035:   Logging unit number
 LUL .               CSPR:   Logging unit location
 ENGI.              CRAIG:   Recorded By
 WITN.         HARRINGTON:   Witnessed by
 ORIG.      2.5" 5" PRINT:   Origin of data
 UWI .     49025105680000:   Unique Well ID
 DICO. A2D TECHNOLOGIES, INC.:   Digitizing Company
~OTHER INFORMATION
~A   DEPT     CALD       RHOB       CORR        SPR        SFL        ILD        ILM         GRD  
# ...
 1948.0000     8.7917     2.5488     0.0426   -56.4028    12.2295    13.0430    11.8965   122.4917
 1948.5000     8.7126     2.5549     0.0426   -56.4039    11.3606    12.6868    11.5716   114.7993
 1949.0000     8.7303     2.5690     0.0446   -55.8134    10.8488    12.4543    11.4648   113.5287
 1949.5000     8.7479     2.5750     0.0486   -55.6173    11.0493    12.4541    11.5688   113.0228
 1950.0000     8.7517     2.5549     0.0566   -55.6184    11.0483    12.4520    11.4639   114.7973
 1950.5000     8.7909     2.5388     0.0607   -54.8724    10.8486    11.9203    11.3599   126.6310
 1951.0000     8.8303     2.5367     0.0627   -54.4351    10.8469    11.8922    11.1505   127.2225
 1951.5000     8.8301     2.5347     0.0647   -54.4351    10.2645    11.7835    10.8470   132.5956
 1952.0000     8.8300     2.5206     0.0627   -54.4351     9.8937    11.7836    10.7478   134.3225
 1952.5000     8.8299     2.5106     0.0587   -54.4351    10.3596    11.6969    10.7480   135.5057
 1953.0000     8.8473     2.5005     0.0405   -54.6323    10.8474    11.5690    10.8474   135.5054
 1953.5000     8.8647     2.5166     0.0425   -54.8296    11.1511    11.5692    10.8476   135.5051
 1954.0000     8.8689     2.5387     0.0506   -54.8296    10.8477    11.4633    10.8477   135.5048
 1954.5000     8.8549     2.5468     0.0657   -55.0268    10.6501    11.3584    10.8478   133.1374
 1955.0000     8.8409     2.5528     0.0717   -55.0268    10.2654    11.3586    10.6502   131.5505
 1955.5000     8.8290     2.5568     0.0818   -55.0268    10.1716    11.3587    10.6503   131.3613
 1956.0000     8.7894     2.5488     0.0899   -55.0268    10.4563    11.3589    10.4563   133.7281
 1956.5000     8.7893     2.5488     0.0919   -55.2241    10.1718    11.0498    10.1718   139.6465
 1957.0000     8.7716     2.5367     0.0648   -55.0268     9.9866    10.9488    10.2660   141.1276
 1957.5000     8.7539     2.5266     0.0378   -54.8296    10.1721    10.7493    10.2661   142.6088
 1958.0000     8.7099     2.4924     0.0214   -55.0268    10.1722    10.7494    10.2662   143.7891
 1958.5000     8.7097     2.4984     0.0333   -55.0268    10.1724    10.7496    10.1723   142.0133
 1959.0000     8.7096     2.5044     0.0455   -55.0268    10.0794    10.6513    10.0794   140.5167
 1959.5000     8.7095     2.5004     0.0385   -55.0268     9.5384    10.5539    10.0795   139.0532
 1960.0000     8.7093     2.4943     0.0385   -55.0268     9.2789    10.5540     9.6266   138.4611
 1960.5000     8.7329     2.4883     0.0365   -54.4351     9.1099    10.5542     9.6268   140.8287
 1961.0000     8.7485     2.4863     0.0344   -54.2379     9.7159    10.5543     9.8962   142.3017
 1961.5000     8.7483     2.4984     0.0344   -53.6462    10.0801    10.6520    10.3621   143.1962
 1962.0000     8.7482     2.5024     0.0405   -53.6462     9.8965    10.6521    10.4579   143.1961
 1962.5000     8.7481     2.5104     0.0596   -54.0406    10.3623    10.6522    10.4581   144.3800
 1963.0000     8.7305     2.5185     0.0596   -54.2379    10.1736    10.8501    10.4582   146.1559
 1963.5000     8.7130     2.5225     0.0556   -54.4351    10.0806    11.0516    10.4584   145.5638
 1964.0000     8.7082     2.5286     0.0515   -55.0268    10.0808    11.0518    10.4585   142.0114
 1964.5000     8.7080     2.5265     0.0455   -54.8296    10.0809    11.4660    10.4586   138.4589
 1965.0000     8.7079     2.5185     0.0435   -55.0268    10.2682    11.5720    10.5554   140.1349
 1965.5000     8.7077     2.5144     0.0395   -55.4213    10.3632    11.3613    10.6530   141.8110
 1966.0000     8.7076     2.5104     0.0274   -55.6185    10.5556    11.3614    10.8509   143.1949
 1966.5000     8.7074     2.5245     0.0415   -56.2103    10.3634    11.2576    10.7990   134.9054
 1967.0000     8.7073     2.5265     0.0455   -56.4075    10.2687    11.2577    10.7473   131.6260
 1967.5000     8.7071     2.5184     0.0435   -56.6047    10.1749    11.2578    10.6958   128.3467
 1968.0000     8.7070     2.5084     0.0374   -56.2103    10.1749    11.2579    10.6446   126.6147
 1968.5000     8.7463     2.5084     0.0354   -56.2103    10.1751    11.2581    10.5936   125.4298
 1969.0000     8.7462     2.5063     0.0475   -56.0130    10.1753    11.2582    10.5565   125.4296
 1969.5000     8.7460     2.4983     0.0495   -55.4213    10.1754    11.2583    10.5566   126.0214
 1970.0000     8.7459     2.4963     0.0475   -55.4213    10.1755    11.1554    10.5566   127.2050
 1970.5000     8.7458     2.4902     0.0314   -55.4213    10.0826    10.9523    10.3645   129.5734
 1971.0000     8.7627     2.4902     0.0294   -54.8296    10.0827    11.0536    10.3647   130.0760
 1971.5000     8.7797     2.4922     0.0334   -54.8296    10.1760    11.0537    10.3648   129.5724
 1972.0000     8.7848     2.5003     0.0414   -54.6323    10.1761    11.0539    10.3649   129.5720
 1972.5000     8.7847     2.5124     0.0475   -54.4351    10.0832    11.0540    10.3650   133.7174
 1973.0000     8.7845     2.5204     0.0495   -54.0406     9.9910    11.0541    10.2703   135.6641
 1973.5000     8.7844     2.5164     0.0475   -53.4489     9.9911    11.1563    10.1765   135.4935
 1974.0000     8.7843     2.5164     0.0434   -53.2517     9.9913    11.1565    10.4612   135.4931
 1974.5000     8.7841     2.5164     0.0394   -53.2517    10.1768    11.1566    10.6554   134.9006
 1975.0000     8.7839     2.5143     0.0374   -53.2517    10.1769    11.1568    10.7540   134.3080
 1975.5000     8.7838     2.5063     0.0293   -53.2517    10.1771    11.0548    10.7541   133.7154
 1976.0000     8.7837     2.4962     0.0253   -53.4489    10.1772    10.9538    10.5583   133.7150
 1976.5000     8.7835     2.4881     0.0303   -53.4489    10.1773    10.8537     9.9920   136.6764
 1977.0000     8.7834     2.5042     0.0364   -54.0406    10.0843    10.4620     9.1146   139.6378
 1977.5000     8.7832     2.5183     0.0424   -54.4351    10.0845    10.2716     8.9487   140.8223
 1978.0000     8.7832     2.5224     0.0525   -54.8296    10.0846    10.0846     8.8670   139.6374
 1978.5000     8.8014     2.5062     0.0485   -55.2241    10.1778    10.1778     8.6260   137.8601
 1979.0000     8.8197     2.4821     0.0444   -55.6185    10.1780    10.4625     8.9491   134.3054
 1979.5000     8.8222     2.4760     0.0404   -56.2103    10.2721    10.5592    10.1781   134.8976
 1980.0000     8.8220     2.4821     0.0364   -56.4075    10.1783    10.8546    10.5594   136.6744
 1980.5000     8.8219     2.4921     0.0323   -56.9992     9.8111    10.8547    10.5595   137.8591
 1981.0000     8.8218     2.4982     0.0283   -56.8020    10.2725    10.8549    10.2725   135.4890
 1981.5000     8.8216     2.4982     0.0263   -56.4075     9.9019    10.6573    10.2727   134.8964
 1982.0000     8.8215     2.4941     0.0263   -56.0130     9.9021    10.7558    10.2728   134.3035
 1982.5000     8.8213     2.4921     0.0283   -56.2103    10.2729    10.7560    10.2729   134.3033
 1983.0000     8.8212     2.4921     0.0323   -56.2103     9.9023    10.7561    10.2731   134.3029
 1983.5000     8.8210     2.5082     0.0384   -56.0130     9.8120    10.7562     9.9939   134.3026
 1984.0000     8.8209     2.5163     0.0555   -56.0130     9.8120    10.6580     9.7223   136.0798
 1984.5000     8.8208     2.5284     0.0636   -55.6185     9.5454    10.6581     9.7224   135.7794
 1985.0000     8.8206     2.5284     0.0636   -55.0268     9.9029    10.8559    10.4642   134.0016
 1985.5000     8.8205     2.5324     0.0595   -54.6323    10.3686    10.8560    10.4643   132.8163
 1986.0000     8.7808     2.5324     0.0535   -54.2379    10.1799    10.8562    10.4644   129.2606
 1986.5000     8.8202     2.5344     0.0494   -53.6462    10.2740    10.8563    10.4646   128.0751
 1987.0000     8.7805     2.5344     0.0555   -53.2517    10.2742    10.9566    10.6587   128.6672
 1987.5000     8.7357     2.5142     0.0575   -53.2517    10.2743    11.0579    10.6589   133.4075
 1988.0000     8.7012     2.4920     0.0474   -53.0544    10.2744    11.0580    10.7574   138.1479
