~VERSION INFORMATION
 VERS.                2.0:   CWLS LOG ASCII STANDARD - VERSION 2.0
 WRAP.                 NO:   ONE LINE PER DEPTH STEP
~WELL INFORMATION
#MNEM.UNIT      DATA TYPE    INFORMATION
#----------   ------------   ------------------------------
 STRT.F          166.0000:   START DEPTH
 STOP.F         3150.5000:   STOP DEPTH
 STEP.F            0.5000:   STEP LENGTH
 NULL.          -999.2500:   NO VALUE
 COMP.    FENIX & SCISSON:   COMPANY
 WELL.  FENIX "AX" #41-34:   WELL
 FLD .              NPR 3:   FIELD
 LOC .      S34 T39N R78W:   LOCATION
 CNTY.            NATRONA:   COUNTY
 STAT.            WYOMING:   STATE
 CTRY. UNITED STATES OF AMERICA:   COUNTRY
 SRVC.       SCHLUMBERGER:   SERVICE COMPANY
 DATE.        05-FEB-1978:   LOGDATE
 API .     49025105680000:   API NUMBER
~CURVE INFORMATION
#MNEM.UNIT       API CODE    CURVE DESCRIPTION
#----------   ------------   ------------------------------
 DEPT.F                  :   
 CALD.IN     45 280 60 00:   CALIPER FROM DENSITY LOG
 RHOB.G/C3   45 350 01 00:   BULK DENSITY
 CORR.G/C3   45 356 01 00:   DENSITY CORRECTION
 SPR .MV     07 010 01 00:   SPONTANEOUS POTENTIAL
 SFL .OHMM   07 220 01 00:   SHALLOW FOCUSED LOG RESISTIVITY
 ILD .OHMM   07 120 46 00:   INDUCTION LOG DEEP RESISTIVITY
 ILM .OHMM   07 120 44 00:   INDUCTION LOG MEDIUM RESISTIVITY
 GRD .GAPI   45 310 01 00:   GAMMA RAY FROM DENSITY LOG
~PARAMETER INFORMATION
#MNEM.UNIT          VALUE    DESCRIPTION
#----------   ------------   ------------------------------
 EKB .F         5074.0000:   Kelly bushing
 EGL .F         5063.0000:   Ground level
 EDF .F            0.0000:   Drilling floor
 TD  .F         3151.0000:   Total depth
 DATE.        05-FEB-1978:   Date logged
 CLNT.            A2DTECH:   Client Code
 SL  . 330' FNL & 2310' FWL:   Surface Location
 PD  .                 GL:   Permanent Datum
 EPD .F              5063:   Elevation Permanent Datum
 LMF .                 KB:   Log Measured From
 DMF .                 KB:   Drilling Measured From
 DAPD.F                11:   Feet Above Permanent Datum
 DD  .F              3145:   Depth driller
 DL  .F              3151:   Depth logger
 BLI .F              3145:   Bottom log interval
 TLI .F               207:   Top log interval
 CS1 .IN            8.625:   Casing size
 CBD1.      8.625" @ 195':   Casing driller 1
 CBL1.F               207:   Casing logger 1
 BS1 .IN            7.875:   Bit size
 BSD1.F              3145:   Depth drilled with bit1
 DFT .            GEL/MUD:   Type fluid in hole
 DFD .                8.5:   Density
 DFV .                 31:   Viscosity
 DFPH.               10.5:   pH
 DFL .                5.6:   Fluid loss
 MSS .             MUDPIT:   Source of sample
 RMS .OHMM           1.63:   Rm
 MST .F                59:   Rm Meas. temp.
 RMF .OHMM           1.48:   Rmf
 MFST.F                59:   Rmf Meas. temp.
 RMC .OHMM           2.45:   Rmc
 MCST.F                59:   Rmc Meas. temp.
 MFSS.               MEAS:   Source Rmf.
 MCSS.               CALC:   Source Rmc.
 RMB .OHMM            .87:   Rm. at BHT
 BHT .F               110:   BHT.
 TCS .HRS            1300:   Time Circ. stopped
 TLAB.HRS            1920:   Time logger at bottom
 MRT .F               110:   Maximum recorded temp.
 LUN .               8035:   Logging unit number
 LUL .               CSPR:   Logging unit location
 ENGI.              CRAIG:   Recorded By
 WITN.         HARRINGTON:   Witnessed by
 ORIG.      2.5" 5" PRINT:   Origin of data
 UWI .     49025105680000:   Unique Well ID
 DICO. A2D TECHNOLOGIES, INC.:   Digitizing Company
~OTHER INFORMATION
~A   DEPT     CALD       RHOB       CORR        SPR        SFL        ILD        ILM         GRD  
# ...
 1178.5000    10.0973     2.5318     0.0486   -60.6542     7.9115    10.0442     8.5974   104.4667
 1179.0000    10.0973     2.5593     0.0608   -60.8549     7.9100    10.0422     8.7170   104.4667
 1179.5000    10.0973     2.5614     0.0789   -60.6620     7.9084     9.9486     8.8384   105.6571
 1180.0000    10.0973     2.5593     0.0789   -60.6659     7.8347     9.9466     8.9093   105.0619
 1180.5000    10.0973     2.5374     0.0709   -59.8825     7.7616    10.0364     8.9072   108.6333
 1181.0000    10.1370     2.5210     0.0628   -59.8864     7.7601    10.1269     8.9055   108.6333
 1181.5000    10.1370     2.5129     0.0416   -59.3007     7.6169    10.0325     8.9859   108.6333
 1182.0000    10.2770     2.5129     0.0477   -59.3030     7.6164    10.3105     9.0670   106.2524
 1182.5000    10.3751     2.5190     0.0538   -59.7014     7.8272    10.5954     9.1484   105.6571
 1183.0000    10.4148     2.5129     0.0538   -59.9021     7.9706    10.7034     9.2317   103.2762
 1183.5000    10.4544     2.5028     0.0497   -60.1029     8.1916    10.8124     9.4005   100.3000
 1184.0000    10.4544     2.4988     0.0477   -60.1068     8.5739    10.9226     9.7501    97.3238
 1184.5000    10.0973     2.5170     0.0649   -60.3075     8.8122    11.0838     9.8381    97.3238
 1185.0000    10.0973     2.5231     0.0730   -60.9027     8.8917    11.1851    10.0184   101.4905
 1185.5000    10.0973     2.5231     0.0730   -61.6932     8.9720    11.2860    10.0164   102.7626
 1186.0000    10.0973     2.5190     0.0689   -61.8939     8.9702    11.3878    10.0145   104.0347
 1186.5000    10.0973     2.5049     0.0649   -61.8978     8.9688    11.3873    10.0125   104.4667
 1187.0000    10.1370     2.5029     0.0589   -62.4922     8.8848    11.7010    10.1028   100.8952
 1187.5000    10.1370     2.4988     0.0528   -62.6930     8.9650    11.6987    10.1009    97.3238
 1188.0000    10.1370     2.5029     0.0488   -62.6969     9.0459    11.6964    10.3816    91.9667
 1188.5000    10.1853     2.5090     0.0468   -62.8977    10.0047    11.8019    10.3791    93.1571
 1189.0000    10.2163     2.5251     0.0488   -63.2960     9.8208    11.7995    10.4736    95.5381
 1189.5000    10.2163     2.5473     0.0468   -63.2999     9.8189    11.9485    10.4707    96.7286
 1190.0000    10.2163     2.5595     0.0468   -63.3039     9.5505    12.0133    10.4686    94.9429
 1190.5000    10.2163     2.5797     0.0468   -62.9141     9.1205    12.0110    10.5627    94.9429
 1191.0000    10.2514     2.5696     0.0509   -62.7212     9.1187    12.1193    10.5606    93.7524
 1191.5000    10.2864     2.5453     0.0488   -62.5283     9.2847    12.1169    10.5585    93.7524
 1192.0000    10.2957     2.5433     0.0529   -62.5322     9.2840    12.1145    10.5573    95.5381
 1192.5000    10.3354     2.5373     0.0590   -61.5512     9.2822    12.0428    10.6514    95.5381
 1193.0000    10.3354     2.5332     0.0630   -60.5710     9.2804    12.1097    10.6500    97.3205
 1193.5000    10.3118     2.5151     0.0549   -60.3781     9.3630    12.2189    10.8154    97.9190
 1194.0000    10.2957     2.5050     0.0489   -60.1852     9.3623    11.9943    11.0424    94.9429
 1194.5000    10.2560     2.5070     0.0489   -59.5986     9.3608    12.2135    10.7423    94.9429
 1195.0000    10.2560     2.5030     0.0489   -59.6026     9.3590    12.1006    10.7401    95.5381
 1195.5000    10.2163     2.5030     0.0509   -59.6065     9.3568    12.0171    10.6391    96.7286
 1196.0000    10.2163     2.5070     0.0570   -59.6104     9.3550    11.9844    10.6379    98.5143
 1196.5000    10.0973     2.5212     0.0631   -60.0080     9.3535    12.0924    10.7331    98.5143
 1197.0000    10.0973     2.5406     0.0732   -60.0119     9.2663    12.0900    10.7305    98.5143
 1197.5000    10.0973     2.5601     0.0853   -61.0007     9.1796    12.3115    10.7284    94.3476
 1198.0000    10.0576     2.5818     0.0893   -61.5951     9.1778    12.0857    10.8255    91.9667
 1198.5000    10.0576     2.5798     0.0833   -61.9927     9.7846    12.4200    10.9231    93.1571
 1199.0000    10.0576     2.5717     0.0692   -62.5871     9.8728    12.6474    10.9227    94.4782
 1199.5000    10.0576     2.5656     0.0571   -62.7879     9.9618    12.9977    11.2235    94.9429
 1200.0000    10.0179     2.5327     0.0207   -62.7918     9.9599    13.2357    11.2213    94.9429
 1200.5000    10.0179     2.5072     0.0225   -62.9751    10.2232    13.6447    11.6891    95.8457
 1201.0000    10.0178     2.4990     0.0267   -63.1933    10.7147    13.8525    11.9619    96.4870
 1201.5000    10.0177     2.4989     0.0288   -63.5908    11.0119    14.2371    12.4066    96.7233
 1202.0000    10.0176     2.5010     0.0348   -64.1852    11.5268    14.3660    12.7506    93.7451
 1202.5000    10.0175     2.5131     0.0429   -63.7955    11.6312    14.6310    12.8665    93.7443
 1203.0000    10.0175     2.5292     0.0509   -63.6025    11.9538    15.1739    12.8656    91.3607
 1203.5000    10.0174     2.5373     0.0610   -63.6065    12.0620    15.4524    13.2040    91.3593
 1204.0000    10.0173     2.5514     0.0711   -63.6104    12.1711    15.5923    13.4634    90.1668
 1204.5000    10.0172     2.5453     0.0691   -62.8270    12.1692    15.7335    14.0925    90.1654
 1205.0000    10.0171     2.5312     0.0539   -62.4372    12.2793    15.7325    14.1314    90.1633
 1205.5000    10.0171     2.5090     0.0459   -62.4411    12.3905    15.8703    14.1704    90.1619
 1206.0000    10.0170     2.5009     0.0438   -62.6419    12.6179    16.0171    14.2155    87.1843
 1206.5000    10.0169     2.5089     0.0479   -62.2521    12.5006    15.8682    14.2142    86.5885
 1207.0000    10.0169     2.5352     0.0579   -62.0592    12.4986    15.7203    14.2114    84.6947
 1207.5000    10.0168     2.5412     0.0620   -61.8663    12.3825    15.4325    14.2091    84.2042
 1208.0000    10.0167     2.5231     0.0579   -61.6734    12.1554    15.4296    13.8212    87.7724
 1208.5000    10.0166     2.5129     0.0519   -61.4805    11.7155    14.8712    13.4429    87.7710
 1209.0000    10.0165     2.5150     0.0357   -61.4844    11.3956    14.4652    13.0768    87.7704
 1209.5000    10.0164     2.5230     0.0397   -61.6851    11.1863    14.5962    12.8374    87.1726
 1210.0000    10.0164     2.5654     0.0458   -61.8858    10.8809    14.3285    12.8349    92.5254
 1210.5000    10.0163     2.5715     0.0538   -62.2842    10.2965    13.8100    12.3704    92.5247
 1211.0000    10.0338     2.5594     0.0619   -62.2881    10.2008    13.5568    12.0904    94.7264
 1211.5000    10.0512     2.5406     0.0619   -62.4888    10.1991    13.4308    11.8116    96.9282
 1212.0000    10.0557     2.5230     0.0578   -62.4927    10.1974    13.3060    11.8097    98.4676
 1212.5000    10.0795     2.5189     0.0497   -62.4967    10.0104    13.4282    11.5931    97.9540
 1213.0000    10.0952     2.5149     0.0477   -62.1069    10.0088    12.9406    11.4857    97.8703
 1213.5000    10.0951     2.5189     0.0538   -61.9140    10.0994    12.8203    11.4159    94.8927
 1214.0000    10.0951     2.5250     0.0558   -62.1147    10.1908    12.8183    11.3768    93.7006
 1214.5000    10.0950     2.5310     0.0537   -62.1186    10.0039    12.6991    11.2718    93.6991
 1215.0000    10.0949     2.5391     0.0517   -61.9257     9.8204    12.5819    11.0867    93.6969
 1215.5000    10.1345     2.5391     0.0517   -61.5360     9.8188    12.4815    11.0625    93.6955
 1216.0000    10.1344     2.5391     0.0537   -61.5399     9.8172    12.4618    10.9597    94.2881
 1216.5000    10.1344     2.5289     0.0537   -61.5438     9.8156    12.3460    10.9579    94.8822
 1217.0000    10.1979     2.5310     0.0537   -61.1541     9.8140    12.3440    10.8561    97.8533
 1217.5000    10.2531     2.5390     0.0537   -60.7643     9.8124    12.3420    10.8557    97.8518
 1218.0000    10.2530     2.5390     0.0537   -59.9809     9.9012    12.3400    10.8526    97.2547
 1218.5000    10.2926     2.5350     0.0537   -59.9833     9.9908    12.4223    11.0507    97.2531
