~VERSION INFORMATION
 VERS.                2.0:   CWLS LOG ASCII STANDARD - VERSION 2.0
 WRAP.                 NO:   ONE LINE PER DEPTH STEP
~WELL INFORMATION
#MNEM.UNIT      DATA TYPE    INFORMATION
#----------   ------------   ------------------------------
 STRT.F          166.0000:   START DEPTH
 STOP.F         3150.5000:   STOP DEPTH
 STEP.F            0.5000:   STEP LENGTH
 NULL.          -999.2500:   NO VALUE
 COMP.    FENIX & SCISSON:   COMPANY
 WELL.  FENIX "AX" #41-34:   WELL
 FLD .              NPR 3:   FIELD
 LOC .      S34 T39N R78W:   LOCATION
 CNTY.            NATRONA:   COUNTY
 STAT.            WYOMING:   STATE
 CTRY. UNITED STATES OF AMERICA:   COUNTRY
 SRVC.       SCHLUMBERGER:   SERVICE COMPANY
 DATE.        05-FEB-1978:   LOGDATE
 API .     49025105680000:   API NUMBER
~CURVE INFORMATION
#MNEM.UNIT       API CODE    CURVE DESCRIPTION
#----------   ------------   ------------------------------
 DEPT.F                  :   
 CALD.IN     45 280 60 00:   CALIPER FROM DENSITY LOG
 RHOB.G/C3   45 350 01 00:   BULK DENSITY
 CORR.G/C3   45 356 01 00:   DENSITY CORRECTION
 SPR .MV     07 010 01 00:   SPONTANEOUS POTENTIAL
 SFL .OHMM   07 220 01 00:   SHALLOW FOCUSED LOG RESISTIVITY
 ILD .OHMM   07 120 46 00:   INDUCTION LOG DEEP RESISTIVITY
 ILM .OHMM   07 120 44 00:   INDUCTION LOG MEDIUM RESISTIVITY
 GRD .GAPI   45 310 01 00:   GAMMA RAY FROM DENSITY LOG
~PARAMETER INFORMATION
#MNEM.UNIT          VALUE    DESCRIPTION
#----------   ------------   ------------------------------
 EKB .F         5074.0000:   Kelly bushing
 EGL .F         5063.0000:   Ground level
 EDF .F            0.0000:   Drilling floor
 TD  .F         3151.0000:   Total depth
 DATE.        05-FEB-1978:   Date logged
 CLNT.            A2DTECH:   Client Code
 SL  . 330' FNL & 2310' FWL:   Surface Location
 PD  .                 GL:   Permanent Datum
 EPD .F              5063:   Elevation Permanent Datum
 LMF .                 KB:   Log Measured From
 DMF .                 KB:   Drilling Measured From
 DAPD.F                11:   Feet Above Permanent Datum
 DD  .F              3145:   Depth driller
 DL  .F              3151:   Depth logger
 BLI .F              3145:   Bottom log interval
 TLI .F               207:   Top log interval
 CS1 .IN            8.625:   Casing size
 CBD1.      8.625" @ 195':   Casing driller 1
 CBL1.F               207:   Casing logger 1
 BS1 .IN            7.875:   Bit size
 BSD1.F              3145:   Depth drilled with bit1
 DFT .            GEL/MUD:   Type fluid in hole
 DFD .                8.5:   Density
 DFV .                 31:   Viscosity
 DFPH.               10.5:   pH
 DFL .                5.6:   Fluid loss
 MSS .             MUDPIT:   Source of sample
 RMS .OHMM           1.63:   Rm
 MST .F                59:   Rm Meas. temp.
 RMF .OHMM           1.48:   Rmf
 MFST.F                59:   Rmf Meas. temp.
 RMC .OHMM           2.45:   Rmc
 MCST.F                59:   Rmc Meas. temp.
 MFSS.               MEAS:   Source Rmf.
 MCSS.               CALC:   Source Rmc.
 RMB .OHMM            .87:   Rm. at BHT
 BHT .F               110:   BHT.
 TCS .HRS            1300:   Time Circ. stopped
 TLAB.HRS            1920:   Time logger at bottom
 MRT .F               110:   Maximum recorded temp.
 LUN .               8035:   Logging unit number
 LUL .               CSPR:   Logging unit location
 ENGI.              CRAIG:   Recorded By
 WITN.         HARRINGTON:   Witnessed by
 ORIG.      2.5" 5" PRINT:   Origin of data
 UWI .     49025105680000:   Unique Well ID
 DICO. A2D TECHNOLOGIES, INC.:   Digitizing Company
~OTHER INFORMATION
~A   DEPT     CALD       RHOB       CORR        SPR        SFL        ILD        ILM         GRD  
# ...
  409.0000    12.2946     2.3825     0.0676   -68.6824    11.8654    18.7794    15.3439    67.2960
  409.5000    12.1939     2.3906     0.0743   -68.4878    11.7548    18.6043    15.3434    67.2960
  410.0000    12.0970     2.3966     0.0904   -68.0961    11.9704    18.6009    15.4798    67.2960
  410.5000    12.0970     2.4087     0.0864   -67.3102    12.0786    18.5961    15.4775    69.0747
  411.0000    12.0574     2.4168     0.0804   -66.7214    12.0764    18.5940    15.4757    71.4462
  411.5000    12.0574     2.4027     0.0663   -66.5269    11.9638    18.5906    15.5883    72.6320
  412.0000    12.0970     2.3927     0.0583   -66.9238    11.8522    18.5871    15.6116    72.6320
  412.5000    12.0574     2.3867     0.0502   -67.1235    11.7417    18.4145    15.6098    70.8534
  413.0000    12.0574     2.3887     0.0462   -67.1262    11.7396    18.6071    15.6060    69.0747
  413.5000    12.0574     2.3988     0.0583   -67.1288    11.7374    18.7482    15.6029    68.4818
  414.0000    12.0179     2.4068     0.0825   -66.7372    11.8435    18.7447    15.4575    68.4818
  414.5000    12.0574     2.4229     0.0845   -66.5427    12.0608    18.7413    15.7473    69.0747
  415.0000    12.0574     2.4229     0.0805   -66.3482    12.3953    18.9093    15.8833    67.8889
  415.5000    12.0574     2.4008     0.0705   -66.3509    12.3930    18.9072    15.7364    65.5174
  416.0000    12.0574     2.3847     0.0524   -66.7477    12.0541    18.7309    15.5885    64.9245
  416.5000    12.0574     2.3827     0.0584   -67.5388    11.9417    18.8785    15.5856    64.9245
  417.0000    12.0574     2.3888     0.0665   -67.7385    11.8304    18.3833    15.5851    67.8889
  417.5000    12.1265     2.3868     0.0665   -67.9382    11.8282    18.3799    15.4695    71.4462
  418.0000    12.1265     2.3788     0.0515   -68.3350    11.8260    18.2085    15.4346    75.0036
  418.5000    12.1265     2.3667     0.0474   -68.3376    11.8238    18.2058    15.4341    75.5964
  419.0000    12.1265     2.3566     0.0434   -68.5372    11.9307    18.2021    15.3208    71.4462
  419.5000    12.1265     2.3587     0.0435   -68.7369    11.9285    18.1971    15.4261    69.0747
  420.0000    12.1265     2.3738     0.0515   -68.7395    12.0358    18.1957    15.0047    67.2960
  420.5000    12.0079     2.3929     0.0767   -68.5450    12.0345    18.3582    15.3168    66.7032
  421.0000    11.9289     2.3909     0.0767   -68.5476    12.0318    18.1890    15.2766    67.2960
  421.5000    11.8893     2.3809     0.0707   -68.5502    11.9201    18.6949    15.2749    67.8889
  422.0000    11.8598     2.3728     0.0526   -67.9617    12.0278    19.7487    15.8423    69.6676
  422.5000    11.7847     2.3728     0.0486   -67.9643    12.0256    20.2965    16.1335    72.0391
  423.0000    11.7412     2.3729     0.0446   -67.5728    12.2462    21.0519    16.8877    75.0036
  423.5000    11.7017     2.3769     0.0446   -67.3784    12.8192    21.2453    17.3581    75.5964
  424.0000    11.6622     2.3829     0.0446   -66.9864    14.0494    22.2360    18.6763    75.0036
  424.5000    11.6455     2.3930     0.0466   -66.5949    14.9793    22.4370    19.9124    75.5964
  425.0000    11.6622     2.4091     0.0527   -65.8095    15.6807    22.2278    19.9088    75.5964
  425.5000    11.6622     2.4414     0.0668   -65.4181    15.6778    22.0214    19.0098    75.5964
  426.0000    11.6226     2.4675     0.0789   -65.2237    13.4090    21.6159    18.8347    76.1893
  426.5000    11.5831     2.4958     0.0749   -65.0293    12.4571    20.6421    17.3369    74.4107
  427.0000    11.5436     2.5078     0.0669   -65.0320    11.6794    20.0776    16.5565    70.2605
  427.5000    11.5041     2.5260     0.0629   -65.0347    11.3600    19.3507    16.4040    69.0747
  428.0000    11.5041     2.5582     0.0750   -64.6433    11.3579    18.6494    15.9536    69.0747
  428.5000    11.5436     2.5582     0.0850   -64.4490    11.3558    17.6459    15.5184    70.2605
  429.0000    11.6226     2.5421     0.0851   -64.4517    11.3537    17.3216    14.9594    76.7822
  429.5000    11.6664     2.4935     0.0731   -64.2573    11.3516    17.3209    14.6806    77.3751
  430.0000    11.7101     2.4448     0.0489   -64.0630    11.2458    17.0001    14.5432    79.1538
  430.5000    11.7538     2.3992     0.0459   -64.2627    11.2437    17.1537    14.4076    77.3751
  431.0000    11.7808     2.3932     0.0358   -64.6635    11.1389    17.1506    14.4060    76.1893
  431.5000    11.7017     2.3872     0.0298   -65.4530    11.1368    17.1474    14.3094    75.0036
  432.0000    11.7017     2.3852     0.0298   -66.0466    11.1348    16.9875    14.2680    73.8178
  432.5000    11.7261     2.3912     0.0339   -66.0462    11.2354    16.9863    14.1366    71.4462
  433.0000    11.7412     2.3993     0.0439   -66.8367    11.1306    16.9815    14.2232    71.4462
  433.5000    11.7412     2.4154     0.0480   -67.0363    11.1286    16.8229    14.2601    70.8534
  434.0000    11.7017     2.4175     0.0480   -66.8420    11.0248    16.8198    14.2575    70.8534
  434.5000    11.7412     2.4175     0.0460   -66.8446    10.9221    16.8167    14.1646    72.6320
  435.0000    11.7412     2.4175     0.0440   -66.8473    10.8202    17.1252    14.1220    75.5964
  435.5000    11.7412     2.4235     0.0501   -67.0468    10.8182    17.1227    13.9919    76.1893
  436.0000    11.7412     2.4417     0.0561   -67.0495    10.9160    16.9591    13.8665    76.7822
  436.5000    11.7412     2.4518     0.0521   -66.4613    10.8142    16.6507    13.8573    75.5964
  437.0000    11.7412     2.4437     0.0461   -65.6761    10.8122    16.6476    13.9841    73.2249
  437.5000    11.7412     2.4357     0.0421   -65.2849    10.9100    16.4924    13.9801    73.2249
  438.0000    11.7412     2.4417     0.0441   -65.0907    11.0086    16.4894    14.1063    75.0036
  438.5000    11.7891     2.4538     0.0658   -64.5020    10.9051    16.4882    14.1058    73.5178
  439.0000    11.8203     2.4699     0.0925   -63.5201    10.7055    16.4839    14.1014    73.5178
  439.5000    11.8203     2.4820     0.0965   -62.7351    10.7039    16.4802    13.9696    73.5178
  440.0000    11.7808     2.4800     0.0986   -62.7378    10.7015    16.4772    14.2259    73.5178
  440.5000    11.7808     2.4640     0.0866   -62.5436    10.6996    16.4742    13.9276    73.5178
  441.0000    11.7164     2.4539     0.0746   -62.5463    10.6976    16.4711    13.8343    74.1107
  441.5000    11.6622     2.4459     0.0626   -62.3521    10.6956    16.3188    13.8338    74.7036
  442.0000    11.6226     2.4459     0.0523   -62.3549    10.5963    16.4388    13.8293    76.4822
  442.5000    11.6226     2.4459     0.0483   -62.1607    10.4975    16.4626    13.8266    79.1538
  443.0000    11.6226     2.4479     0.0403   -62.1634    10.5924    16.4596    13.8261    76.7822
  443.5000    11.6226     2.4479     0.0363   -62.1661    10.6881    16.6083    13.9324    76.7822
  444.0000    11.6226     2.4479     0.0524   -62.1688    10.7847    16.7584    14.0751    77.9680
  444.5000    11.6226     2.4661     0.0605   -62.7622    10.9826    16.6022    14.0746    80.3395
  445.0000    11.6226     2.4701     0.0665   -62.7649    11.0818    16.5989    14.0701    81.5253
  445.5000    11.6226     2.4681     0.0665   -62.9645    10.9785    16.5960    14.0673    80.9324
  446.0000    11.6226     2.4500     0.0464   -63.3609    10.8761    16.5930    14.0668    78.7968
  446.5000    11.6387     2.4279     0.0468   -63.3636    10.7747    16.5899    13.9699    76.6612
  447.0000    11.6547     2.4319     0.0475   -63.3663    10.7728    16.5868    13.9315    74.5255
  447.5000    11.6622     2.4521     0.0512   -63.3690    10.6723    16.4328    13.9925    72.0391
  448.0000    11.6622     2.4561     0.0556   -63.3717    10.6696    16.1503    14.0538    75.5964
  448.5000    11.6622     2.4561     0.0546   -63.1776    10.5713    16.1272    13.7965    74.4107
  449.0000    11.6622     2.4561     0.0586   -62.7866    10.3766    16.1243    13.6368    75.0036
