~VERSION INFORMATION
 VERS.                2.0:   CWLS LOG ASCII STANDARD - VERSION 2.0
 WRAP.                 NO:   ONE LINE PER DEPTH STEP
~WELL INFORMATION
#MNEM.UNIT      DATA TYPE    INFORMATION
#----------   ------------   ------------------------------
 STRT.F          166.0000:   START DEPTH
 STOP.F         3150.5000:   STOP DEPTH
 STEP.F            0.5000:   STEP LENGTH
 NULL.          -999.2500:   NO VALUE
 COMP.    FENIX & SCISSON:   COMPANY
 WELL.  FENIX "AX" #41-34:   WELL
 FLD .              NPR 3:   FIELD
 LOC .      S34 T39N R78W:   LOCATION
 CNTY.            NATRONA:   COUNTY
 STAT.            WYOMING:   STATE
 CTRY. UNITED STATES OF AMERICA:   COUNTRY
 SRVC.       SCHLUMBERGER:   SERVICE COMPANY
 DATE.        05-FEB-1978:   LOGDATE
 API .     49025105680000:   API NUMBER
~CURVE INFORMATION
#MNEM.UNIT       API CODE    CURVE DESCRIPTION
#----------   ------------   ------------------------------
 DEPT.F                  :   
 CALD.IN     45 280 60 00:   CALIPER FROM DENSITY LOG
 RHOB.G/C3   45 350 01 00:   BULK DENSITY
 CORR.G/C3   45 356 01 00:   DENSITY CORRECTION
 SPR .MV     07 010 01 00:   SPONTANEOUS POTENTIAL
 SFL .OHMM   07 220 01 00:   SHALLOW FOCUSED LOG RESISTIVITY
 ILD .OHMM   07 120 46 00:   INDUCTION LOG DEEP RESISTIVITY
 ILM .OHMM   07 120 44 00:   INDUCTION LOG MEDIUM RESISTIVITY
 GRD .GAPI   45 310 01 00:   GAMMA RAY FROM DENSITY LOG
~PARAMETER INFORMATION
#MNEM.UNIT          VALUE    DESCRIPTION
#----------   ------------   ------------------------------
 EKB .F         5074.0000:   Kelly bushing
 EGL .F         5063.0000:   Ground level
 EDF .F            0.0000:   Drilling floor
 TD  .F         3151.0000:   Total depth
 DATE.        05-FEB-1978:   Date logged
 CLNT.            A2DTECH:   Client Code
 SL  . 330' FNL & 2310' FWL:   Surface Location
 PD  .                 GL:   Permanent Datum
 EPD .F              5063:   Elevation Permanent Datum
 LMF .                 KB:   Log Measured From
 DMF .                 KB:   Drilling Measured From
 DAPD.F                11:   Feet Above Permanent Datum
 DD  .F              3145:   Depth driller
 DL  .F              3151:   Depth logger
 BLI .F              3145:   Bottom log interval
 TLI .F               207:   Top log interval
 CS1 .IN            8.625:   Casing size
 CBD1.      8.625" @ 195':   Casing driller 1
 CBL1.F               207:   Casing logger 1
 BS1 .IN            7.875:   Bit size
 BSD1.F              3145:   Depth drilled with bit1
 DFT .            GEL/MUD:   Type fluid in hole
 DFD .                8.5:   Density
 DFV .                 31:   Viscosity
 DFPH.               10.5:   pH
 DFL .                5.6:   Fluid loss
 MSS .             MUDPIT:   Source of sample
 RMS .OHMM           1.63:   Rm
 MST .F                59:   Rm Meas. temp.
 RMF .OHMM           1.48:   Rmf
 MFST.F                59:   Rmf Meas. temp.
 RMC .OHMM           2.45:   Rmc
 MCST.F                59:   Rmc Meas. temp.
 MFSS.               MEAS:   Source Rmf.
 MCSS.               CALC:   Source Rmc.
 RMB .OHMM            .87:   Rm. at BHT
 BHT .F               110:   BHT.
 TCS .HRS            1300:   Time Circ. stopped
 TLAB.HRS            1920:   Time logger at bottom
 MRT .F               110:   Maximum recorded temp.
 LUN .               8035:   Logging unit number
 LUL .               CSPR:   Logging unit location
 ENGI.              CRAIG:   Recorded By
 WITN.         HARRINGTON:   Witnessed by
 ORIG.      2.5" 5" PRINT:   Origin of data
 UWI .     49025105680000:   Unique Well ID
 DICO. A2D TECHNOLOGIES, INC.:   Digitizing Company
~OTHER INFORMATION
~A   DEPT     CALD       RHOB       CORR        SPR        SFL        ILD        ILM         GRD  
# ...
  976.0000    10.5594     2.5136     0.0387   -63.4206     9.9435    13.2153    11.5158    88.7618
  976.5000    10.5932     2.5056     0.0448   -63.6208     9.9425    12.8545    11.3328    89.3622
  977.0000    10.5999     2.4975     0.0428   -63.8210     9.8493    12.8525    11.1996    91.1482
  977.5000    10.6001     2.4955     0.0388   -63.8243     9.4929    12.8504    11.1993    93.4539
  978.0000    10.6003     2.5056     0.0327   -63.8276     9.4050    12.7299    10.8921    89.9702
  978.5000    10.6006     2.5177     0.0307   -63.4371     9.2326    12.1579    10.8911    89.9721
  979.0000    10.6009     2.5299     0.0459   -63.2435     9.0633    12.0450    10.7100    87.7759
  979.5000    10.6013     2.5441     0.0499   -62.8529     8.8971    11.9331    10.5914    88.7959
  980.0000    10.6015     2.5461     0.0601   -62.8563     8.8145    11.9312    10.5898    91.1788
  980.5000    10.6018     2.5421     0.0560   -61.8744     8.7323    11.6055    10.1134    91.1826
  981.0000    10.6021     2.5279     0.0500   -61.6808     8.6510    11.6037    10.0194    92.7371
  981.5000    10.6024     2.5219     0.0419   -61.8816     8.6132    11.6018     9.9264    94.1682
  982.0000    10.6025     2.5239     0.0399   -61.8850     8.5756    11.3891    10.1086    91.7928
  982.5000    10.6271     2.5340     0.0399   -62.2821     8.5682    11.4933    10.0147    90.6089
  983.0000    10.6429     2.5401     0.0440   -62.4823     8.7255    11.3963     9.9217    90.6127
  983.5000    10.6036     2.5381     0.0501   -62.8794     8.7242    11.4887    10.0116    95.3773
  984.0000    10.6436     2.5340     0.0460   -62.8827     8.6431    11.4868     9.9186   100.7350
  984.5000    10.6438     2.5300     0.0460   -63.6736     8.7214    11.4850     9.9171   100.7410
  985.0000    10.6441     2.5300     0.0461   -64.0707     8.7201    11.4832    10.0069   100.1481
  985.5000    10.6444     2.5300     0.0501   -64.4677     8.6391    11.4822     9.9140    97.7765
  986.0000    10.6446     2.5280     0.0522   -64.4710     8.4033    11.4796    10.0038    97.7785
  986.5000    10.6450     2.5260     0.0522   -65.0650     8.3252    11.4778    10.0022    97.7863
  987.0000    10.6453     2.5220     0.0480   -65.0682     8.6351    11.4760    10.0006    98.9915
  987.5000    10.6456     2.5200     0.0461   -64.8746     8.7936    11.5800     9.9991   100.1760
  988.0000    10.6457     2.5179     0.0442   -64.8779     8.7922    11.5781    10.1826   100.1800
  988.5000    10.6186     2.5159     0.0441   -64.2906     8.8719    11.5763     9.9959   100.1859
  989.0000    10.5916     2.5180     0.0442   -64.2939     8.8705    11.5743     9.9944   101.3785
  989.5000    10.5674     2.5079     0.0412   -63.9034     8.7881    11.5727    10.0849   102.8709
  990.0000    10.5676     2.5038     0.0371   -63.9067     8.7867    11.5709    10.0830   102.8749
  990.5000    10.5680     2.5139     0.0311   -63.5163     8.7854    11.3587     9.9894   101.6889
  991.0000    10.5683     2.5241     0.0331   -63.3227     8.7840    11.1505     9.9878    93.3664
  991.5000    10.5686     2.5281     0.0432   -62.9323     8.4662    11.0479     9.9862    92.1782
  992.0000    10.5688     2.5261     0.0402   -61.9512     8.2351    10.9443     9.8032    90.6988
  992.5000    10.5691     2.5099     0.0301   -61.7577     7.8647    10.8427     9.5356    97.8434
  993.0000    10.5954     2.5019     0.0261   -61.3673     7.7205    10.7420     9.3607    97.8474
  993.5000    10.6094     2.5059     0.0241   -61.1738     7.7904    10.7403     9.1891    95.4956
  994.0000    10.6095     2.5160     0.0281   -60.3897     8.0066    10.8376     9.2729    95.4788
  994.5000    10.6496     2.5181     0.0342   -60.3930     8.1536    10.8359     9.3515    95.4827
  995.0000    10.6499     2.5181     0.0403   -60.5932     8.1523    10.8342     9.4408    95.4866
  995.5000    10.6561     2.5140     0.0403   -60.7933     8.1510    11.0323     9.4405    95.4942
  996.0000    10.6622     2.5039     0.0403   -60.9929     8.1498    10.9306     9.7230    96.6886
  996.5000    10.6684     2.5181     0.0447   -61.5874     8.1485    11.1312     9.8799    96.6906
  997.0000    10.6746     2.5182     0.0464   -61.9844     8.2223    11.1305     9.8780    97.8848
  997.5000    10.6808     2.5040     0.0394   -62.5782     8.6862    11.4382     9.8765    97.2975
  998.0000    10.6870     2.4898     0.0333   -62.7784     9.0094    11.5418     9.8752    99.6842
  998.5000    10.6931     2.4817     0.0253   -63.7659     8.9258    11.5400     9.8734   100.8786
  999.0000    10.6993     2.4959     0.0232   -63.9660     8.9244    11.7518     9.8722   101.4798
  999.5000    10.7055     2.5061     0.0273   -64.3636     8.9230    11.7499    10.0531   101.4838
 1000.0000    10.7117     2.5324     0.0374   -64.3669     8.9216    11.7481    10.2376   101.4898
 1000.5000    10.7178     2.5421     0.0433   -64.3702     9.0746    12.0664    10.4016   101.4954
 1001.0000    10.7196     2.5465     0.0476   -64.9627     9.0848    12.1846    10.6180   100.7890
 1001.5000    10.7213     2.5445     0.0496   -64.7685     9.1675    12.1833    10.8135   100.3080
 1002.0000    10.7230     2.5405     0.0536   -64.7711     9.2510    12.2944    10.8126    98.5258
 1002.5000    10.7247     2.5384     0.0536   -64.3801     9.3347    12.1814    10.8114    98.5270
 1003.0000    10.7264     2.5445     0.0536   -64.3828     9.5071    12.1794    10.8103    99.7223
 1003.5000    10.7281     2.5344     0.0536   -64.1886     9.0799    12.1784    11.0096    99.7247
 1004.0000    10.7298     2.5263     0.0516   -64.1913     8.9139    12.1769    10.6111    97.3473
 1004.5000    10.7315     2.5162     0.0475   -63.2099     8.9129    12.1757    10.6105    97.3485
 1005.0000    10.7332     2.5141     0.0455   -63.0158     9.0770    12.1745    10.6094    96.1628
 1005.5000    10.7343     2.5101     0.0475   -62.0355     9.0760    12.1737    10.6080    96.1652
 1006.0000    10.6948     2.5000     0.0455   -61.8404     9.1587    12.1720    10.6074   100.3355
 1006.5000    10.6951     2.5020     0.0394   -61.0559     9.1577    12.1708    10.6450   100.9331
 1007.0000    10.6953     2.5020     0.0333   -60.2710     9.2411    12.2817    10.6828   100.3415
 1007.5000    10.6954     2.5000     0.0313   -60.2737     9.4980    12.2805    10.7016    98.8014
 1008.0000    10.6957     2.5000     0.0293   -60.2770     9.4970    12.2792    10.7005    97.3713
 1008.5000    10.6958     2.5303     0.0404   -60.2797     9.2382    12.2785    10.7980    97.3737
 1009.0000    10.7197     2.5445     0.0687   -60.8722     9.0690    12.1941    10.8960    96.7796
 1009.5000    10.7359     2.5445     0.0748   -61.4662     9.0680    12.1634    10.6974    94.0933
 1010.0000    10.7362     2.5404     0.0768   -61.4684     9.0671    12.2743    10.6958    93.8118
 1010.5000    10.7363     2.5344     0.0667   -62.2581     8.9833    11.9397    10.4996    94.4082
 1011.0000    10.7365     2.5324     0.0525   -62.8511     8.9823    11.9385    10.4993    96.1987
 1011.5000    10.7159     2.5384     0.0464   -63.2472     8.8993    11.8287    10.4987    95.6059
 1012.0000    10.6973     2.5465     0.0484   -63.4466     8.8171    11.8270    10.4838    93.2285
 1012.5000    10.6974     2.5526     0.0515   -63.4493     8.8161    11.8259    10.4689    93.2297
 1013.0000    10.6977     2.5566     0.0636   -63.4520     8.8964    11.8246    10.4540    94.3170
 1013.5000    10.6978     2.5526     0.0676   -63.2579     8.8955    11.8234    10.4391    95.4043
 1014.0000    10.6980     2.5506     0.0514   -63.2611     8.8945    11.8222    10.4243    95.0262
 1014.5000    10.6837     2.5607     0.0514   -63.4605     8.8936    11.8213    10.4095    95.0274
 1015.0000    10.6695     2.5627     0.0555   -63.6599     8.8926    11.8199    10.3943    92.6588
 1015.5000    10.6590     2.5526     0.0595   -63.6625     8.9737    11.8186    10.3932    90.8679
 1016.0000    10.6592     2.5384     0.0636   -63.6652     9.0554    11.7094    10.3921    90.8703
