~VERSION INFORMATION
 VERS.                2.0:   CWLS LOG ASCII STANDARD - VERSION 2.0
 WRAP.                 NO:   ONE LINE PER DEPTH STEP
~WELL INFORMATION
#MNEM.UNIT      DATA TYPE    INFORMATION
#----------   ------------   ------------------------------
 STRT.F          166.0000:   START DEPTH
 STOP.F         3150.5000:   STOP DEPTH
 STEP.F            0.5000:   STEP LENGTH
 NULL.          -999.2500:   NO VALUE
 COMP.    FENIX & SCISSON:   COMPANY
 WELL.  FENIX "AX" #41-34:   WELL
 FLD .              NPR 3:   FIELD
 LOC .      S34 T39N R78W:   LOCATION
 CNTY.            NATRONA:   COUNTY
 STAT.            WYOMING:   STATE
 CTRY. UNITED STATES OF AMERICA:   COUNTRY
 SRVC.       SCHLUMBERGER:   SERVICE COMPANY
 DATE.        05-FEB-1978:   LOGDATE
 API .     49025105680000:   API NUMBER
~CURVE INFORMATION
#MNEM.UNIT       API CODE    CURVE DESCRIPTION
#----------   ------------   ------------------------------
 DEPT.F                  :   
 CALD.IN     45 280 60 00:   CALIPER FROM DENSITY LOG
 RHOB.G/C3   45 350 01 00:   BULK DENSITY
 CORR.G/C3   45 356 01 00:   DENSITY CORRECTION
 SPR .MV     07 010 01 00:   SPONTANEOUS POTENTIAL
 SFL .OHMM   07 220 01 00:   SHALLOW FOCUSED LOG RESISTIVITY
 ILD .OHMM   07 120 46 00:   INDUCTION LOG DEEP RESISTIVITY
 ILM .OHMM   07 120 44 00:   INDUCTION LOG MEDIUM RESISTIVITY
 GRD .GAPI   45 310 01 00:   GAMMA RAY FROM DENSITY LOG
~PARAMETER INFORMATION
#MNEM.UNIT          VALUE    DESCRIPTION
#----------   ------------   ------------------------------
 EKB .F         5074.0000:   Kelly bushing
 EGL .F         5063.0000:   Ground level
 EDF .F            0.0000:   Drilling floor
 TD  .F         3151.0000:   Total depth
 DATE.        05-FEB-1978:   Date logged
 CLNT.            A2DTECH:   Client Code
 SL  . 330' FNL & 2310' FWL:   Surface Location
 PD  .                 GL:   Permanent Datum
 EPD .F              5063:   Elevation Permanent Datum
 LMF .                 KB:   Log Measured From
 DMF .                 KB:   Drilling Measured From
 DAPD.F                11:   Feet Above Permanent Datum
 DD  .F              3145:   Depth driller
 DL  .F              3151:   Depth logger
 BLI .F              3145:   Bottom log interval
 TLI .F               207:   Top log interval
 CS1 .IN            8.625:   Casing size
 CBD1.      8.625" @ 195':   Casing driller 1
 CBL1.F               207:   Casing logger 1
 BS1 .IN            7.875:   Bit size
 BSD1.F              3145:   Depth drilled with bit1
 DFT .            GEL/MUD:   Type fluid in hole
 DFD .                8.5:   Density
 DFV .                 31:   Viscosity
 DFPH.               10.5:   pH
 DFL .                5.6:   Fluid loss
 MSS .             MUDPIT:   Source of sample
 RMS .OHMM           1.63:   Rm
 MST .F                59:   Rm Meas. temp.
 RMF .OHMM           1.48:   Rmf
 MFST.F                59:   Rmf Meas. temp.
 RMC .OHMM           2.45:   Rmc
 MCST.F                59:   Rmc Meas. temp.
 MFSS.               MEAS:   Source Rmf.
 MCSS.               CALC:   Source Rmc.
 RMB .OHMM            .87:   Rm. at BHT
 BHT .F               110:   BHT.
 TCS .HRS            1300:   Time Circ. stopped
 TLAB.HRS            1920:   Time logger at bottom
 MRT .F               110:   Maximum recorded temp.
 LUN .               8035:   Logging unit number
 LUL .               CSPR:   Logging unit location
 ENGI.              CRAIG:   Recorded By
 WITN.         HARRINGTON:   Witnessed by
 ORIG.      2.5" 5" PRINT:   Origin of data
 UWI .     49025105680000:   Unique Well ID
 DICO. A2D TECHNOLOGIES, INC.:   Digitizing Company
~OTHER INFORMATION
~A   DEPT     CALD       RHOB       CORR        SPR        SFL        ILD        ILM         GRD  
# ...
 2150.5000     8.4655     2.4884     0.0441   -55.5672    10.7051    11.3124    10.7052   114.3614
 2151.0000     8.4655     2.4702     0.0320   -55.3953    10.8048    11.3127    10.7057   112.7675
 2151.5000     8.4656     2.4682     0.0321   -55.1969    10.9049    11.2099    10.7063   111.1736
 2152.0000     8.4656     2.4622     0.0361   -54.9985    10.9055    11.2103    10.8057   109.6148
 2152.5000     8.4657     2.4622     0.0361   -54.6035    10.6094    11.2108    10.8065   108.4291
 2153.0000     8.4657     2.4783     0.0381   -54.6016    10.2269    11.4195    10.8068   110.7947
 2153.5000     8.4658     2.4884     0.0341   -54.5996    10.2275    11.5256    10.8074   113.1602
 2154.0000     8.4658     2.4844     0.0301   -54.4012    10.6111    11.3162    10.8079   115.5650
 2154.5000     8.4658     2.4884     0.0281   -53.8102    10.2286    11.4213    10.8084   119.7270
 2155.0000     8.4659     2.4904     0.0301   -53.6118    10.2291    11.5274    10.7101   120.3231
 2155.5000     8.4660     2.4945     0.0321   -53.0204    10.3241    11.7417    10.9095   120.3260
 2156.0000     8.4660     2.5005     0.0382   -53.0184    10.8102    11.7424    10.9098   119.1395
 2156.5000     8.5057     2.4985     0.0402   -52.4270    11.3192    11.8517    11.3192   115.5760
 2157.0000     8.5200     2.4884     0.0342   -52.2286    11.7436    12.1835    11.4243   113.5486
 2157.5000     8.5343     2.4824     0.0241   -52.0302    11.6368    12.2964    11.8526   111.5212
 2158.0000     8.5454     2.4703     0.0301   -52.0282    11.8533    12.6408    12.1846   110.2350
 2158.5000     8.5455     2.4743     0.0342   -52.0262    12.0738    12.4112    12.1851   106.0778
 2159.0000     8.5455     2.4844     0.0362   -52.4172    11.9639    12.4118    12.1859   106.0803
 2159.5000     8.5456     2.4925     0.0403   -52.8082    11.8551    12.5269    12.1865   106.0820
 2160.0000     8.5853     2.4925     0.0423   -52.8062    11.8557    12.4131    11.8557   103.7072
 2160.5000     8.5957     2.4865     0.0403   -53.7866    11.6404    12.1402    11.8562   102.5203
 2161.0000     8.6062     2.4744     0.0261   -54.3737    11.3244    11.8733    11.6409   104.9000
 2161.5000     8.6167     2.4784     0.0302   -54.5682    10.6194    11.5353    11.3250   106.0903
 2162.0000     8.6251     2.4845     0.0342   -54.9584    10.3313    11.5357    11.1193   106.6864
 2162.5000     8.6251     2.4824     0.0322   -55.1537    10.0508    11.2226    10.9174   106.6889
 2163.0000     8.6252     2.4744     0.0201   -55.1517     9.5999    10.9180    10.3322   104.9083
 2163.5000     8.6252     2.4703     0.0121   -55.1505     8.7576    10.7197     9.6890   102.6259
 2164.0000     8.6253     2.5188     0.0141   -55.7372     9.0028    10.3333     9.2544   100.1572
 2164.5000     8.6254     2.5370     0.0474   -55.7352     9.4266    10.0532     9.4266    99.5644
 2165.0000     8.6254     2.5471     0.0575   -55.7333     9.8703    10.1462     9.6019   100.7556
 2165.5000     8.6254     2.5471     0.0575   -55.5348     9.9620    10.3350    10.2404   101.3517
 2166.0000     8.6255     2.5491     0.0535   -55.3364    10.2410    10.7224    10.5272   101.3541
 2166.5000     8.6255     2.5491     0.0474   -54.7450    10.4315    10.8221    10.4315   100.1660
 2167.0000     8.6059     2.5471     0.0414   -54.1536    10.3366    10.7235    10.3366    98.3863
 2167.5000     8.5863     2.5511     0.0414   -53.7591    10.1489    10.4329    10.1489    97.7928
 2168.0000     8.5465     2.5713     0.0535   -53.1677    10.1494    10.4331    10.1494    97.7951
 2168.5000     8.6258     2.5855     0.0636   -52.1834     9.2591    10.4337     9.9654    97.7967
 2169.0000     8.6258     2.5976     0.0838   -52.1814     8.3693    10.4342     9.5182    95.1619
 2169.5000     8.6259     2.5855     0.0939   -52.1795     8.1422    10.4348     9.1752    92.5271
 2170.0000     8.5863     2.5734     0.0739   -52.1775     8.6042    10.4352     9.6071    90.6684
 2170.5000     8.5863     2.5512     0.0650   -52.3720     9.7858    10.4357     9.9673    91.8589
 2171.0000     8.5864     2.5431     0.0566   -52.3701    10.2464    10.8271    10.1527    96.2418
 2171.5000     8.5864     2.5411     0.0546   -52.5646    10.3413    11.2329    10.6304   101.3765
 2172.0000     8.5865     2.5350     0.0485   -52.7591     9.9688    11.4419    10.3420   100.1889
 2172.5000     8.5865     2.5350     0.0506   -52.9536    10.1543    11.5480    10.3426    99.0013
 2173.0000     8.5866     2.5330     0.0485   -53.3442    10.4386    11.6553    10.7303    96.6252
 2173.5000     8.5866     2.5290     0.0486   -54.1281    11.5493    12.0920    11.5493    96.6268
 2174.0000     8.5867     2.5270     0.0425   -54.1261    12.0929    12.6615    11.9823   100.1969
 2174.5000     8.5867     2.5068     0.0405   -54.1242    11.8733    12.5462    11.9829   100.1984
 2175.0000     8.5868     2.5048     0.0365   -54.5152    11.6577    12.3183    11.9835   100.7955
 2175.5000     8.5868     2.4967     0.0344   -54.5132    11.5517    12.3189    11.9841   101.3918
 2176.0000     8.5869     2.4826     0.0284   -54.5112    10.8330    12.3196    11.3420   102.5835
 2176.5000     8.5869     2.4806     0.0264   -54.7057    10.8333    12.2076    10.9333   102.5843
 2177.0000     8.5474     2.4826     0.0224   -54.9002    10.7348    11.8766    10.7348    99.0193
 2177.5000     8.5474     2.4886     0.0203   -54.8983    11.0354    11.8769    11.0354    98.4262
 2178.0000     8.5475     2.4887     0.0183   -54.8963    11.0359    11.9871    11.0359   100.2127
 2178.5000     8.5871     2.4846     0.0133   -54.8943    11.5553    11.9878    11.5553   103.1667
 2179.0000     8.5872     2.4806     0.0174   -54.6959    11.6625    12.2107    11.2416   104.9739
 2179.5000     8.5873     2.4866     0.0275   -54.6939    11.7708    12.3243    11.1394   108.5449
 2180.0000     8.5873     2.4988     0.0376   -54.6920    11.7714    11.8803    11.1400   118.6578
 2180.5000     8.5874     2.4988     0.0376   -54.1006    11.3473    11.7720    11.1407   117.4711
 2181.0000     8.5874     2.4988     0.0396   -53.9022    11.1413    11.6649    10.9384   113.9663
 2181.5000     8.5875     2.5089     0.0477   -53.1147    10.6416    11.4532    10.6416   110.9328
 2182.0000     8.5478     2.5190     0.0578   -52.9163    10.8394    11.4536    10.3529   106.7708
 2182.5000     8.5655     2.5190     0.0639   -52.5213     9.4447    11.2458    10.0720   106.1785
 2183.0000     8.5831     2.5170     0.0639   -52.5194    10.0726    10.9407     9.9803   106.7750
 2183.5000     8.5877     2.5109     0.0538   -52.5174     9.8897    10.7420     9.6209   106.7775
 2184.0000     8.5877     2.5028     0.0417   -52.7119    10.2604    10.6443     9.2743   104.9946
 2184.5000     8.5878     2.4948     0.0275   -52.9064    10.0742    10.5476     9.1900   104.9971
 2185.0000     8.5878     2.4988     0.0316   -53.1009     9.7112    10.5481     9.2756   105.5937
 2185.5000     8.5878     2.5049     0.0397   -53.4919     9.6230    10.2620     9.2758   109.1656
 2186.0000     8.5879     2.5069     0.0437   -53.4900     8.9416    10.1687     9.2762   108.5724
 2186.5000     8.5880     2.5130     0.0366   -54.0770     9.0246    10.1689     9.2767   104.4105
 2187.0000     8.5880     2.5110     0.0326   -54.2715     9.1084    10.1696     9.1084   103.3526
 2187.5000     8.5881     2.5029     0.0346   -54.2696     9.3634    10.1706     9.4498   102.0348
 2188.0000     8.5881     2.5009     0.0367   -53.8747     9.2783    10.1708     9.5378   103.8213
 2188.5000     8.5882     2.5009     0.0448   -53.4794     9.2787    10.1711     9.5380   109.1786
 2189.0000     8.5882     2.4968     0.0468   -53.6747     9.2793    10.1718     9.4512   109.1803
 2189.5000     8.5883     2.4827     0.0367   -53.6727     9.2798    10.0795     9.4517   106.2456
 2190.0000     8.5883     2.4706     0.0286   -53.6707     9.1954     9.9879     9.4522    99.0703
 2190.5000     8.5884     2.4504     0.0246   -53.6688     9.2808    10.0804     9.3664    97.2868
