~VERSION INFORMATION
 VERS.                2.0:   CWLS LOG ASCII STANDARD - VERSION 2.0
 WRAP.                 NO:   ONE LINE PER DEPTH STEP
~WELL INFORMATION
#MNEM.UNIT      DATA TYPE    INFORMATION
#----------   ------------   ------------------------------
 STRT.F          166.0000:   START DEPTH
 STOP.F         3150.5000:   STOP DEPTH
 STEP.F            0.5000:   STEP LENGTH
 NULL.          -999.2500:   NO VALUE
 COMP.    FENIX & SCISSON:   COMPANY
 WELL.  FENIX "AX" #41-34:   WELL
 FLD .              NPR 3:   FIELD
 LOC .      S34 T39N R78W:   LOCATION
 CNTY.            NATRONA:   COUNTY
 STAT.            WYOMING:   STATE
 CTRY. UNITED STATES OF AMERICA:   COUNTRY
 SRVC.       SCHLUMBERGER:   SERVICE COMPANY
 DATE.        05-FEB-1978:   LOGDATE
 API .     49025105680000:   API NUMBER
~CURVE INFORMATION
#MNEM.UNIT       API CODE    CURVE DESCRIPTION
#----------   ------------   ------------------------------
 DEPT.F                  :   
 CALD.IN     45 280 60 00:   CALIPER FROM DENSITY LOG
 RHOB.G/C3   45 350 01 00:   BULK DENSITY
 CORR.G/C3   45 356 01 00:   DENSITY CORRECTION
 SPR .MV     07 010 01 00:   SPONTANEOUS POTENTIAL
 SFL .OHMM   07 220 01 00:   SHALLOW FOCUSED LOG RESISTIVITY
 ILD .OHMM   07 120 46 00:   INDUCTION LOG DEEP RESISTIVITY
 ILM .OHMM   07 120 44 00:   INDUCTION LOG MEDIUM RESISTIVITY
 GRD .GAPI   45 310 01 00:   GAMMA RAY FROM DENSITY LOG
~PARAMETER INFORMATION
#MNEM.UNIT          VALUE    DESCRIPTION
#----------   ------------   ------------------------------
 EKB .F         5074.0000:   Kelly bushing
 EGL .F         5063.0000:   Ground level
 EDF .F            0.0000:   Drilling floor
 TD  .F         3151.0000:   Total depth
 DATE.        05-FEB-1978:   Date logged
 CLNT.            A2DTECH:   Client Code
 SL  . 330' FNL & 2310' FWL:   Surface Location
 PD  .                 GL:   Permanent Datum
 EPD .F              5063:   Elevation Permanent Datum
 LMF .                 KB:   Log Measured From
 DMF .                 KB:   Drilling Measured From
 DAPD.F                11:   Feet Above Permanent Datum
 DD  .F              3145:   Depth driller
 DL  .F              3151:   Depth logger
 BLI .F              3145:   Bottom log interval
 TLI .F               207:   Top log interval
 CS1 .IN            8.625:   Casing size
 CBD1.      8.625" @ 195':   Casing driller 1
 CBL1.F               207:   Casing logger 1
 BS1 .IN            7.875:   Bit size
 BSD1.F              3145:   Depth drilled with bit1
 DFT .            GEL/MUD:   Type fluid in hole
 DFD .                8.5:   Density
 DFV .                 31:   Viscosity
 DFPH.               10.5:   pH
 DFL .                5.6:   Fluid loss
 MSS .             MUDPIT:   Source of sample
 RMS .OHMM           1.63:   Rm
 MST .F                59:   Rm Meas. temp.
 RMF .OHMM           1.48:   Rmf
 MFST.F                59:   Rmf Meas. temp.
 RMC .OHMM           2.45:   Rmc
 MCST.F                59:   Rmc Meas. temp.
 MFSS.               MEAS:   Source Rmf.
 MCSS.               CALC:   Source Rmc.
 RMB .OHMM            .87:   Rm. at BHT
 BHT .F               110:   BHT.
 TCS .HRS            1300:   Time Circ. stopped
 TLAB.HRS            1920:   Time logger at bottom
 MRT .F               110:   Maximum recorded temp.
 LUN .               8035:   Logging unit number
 LUL .               CSPR:   Logging unit location
 ENGI.              CRAIG:   Recorded By
 WITN.         HARRINGTON:   Witnessed by
 ORIG.      2.5" 5" PRINT:   Origin of data
 UWI .     49025105680000:   Unique Well ID
 DICO. A2D TECHNOLOGIES, INC.:   Digitizing Company
~OTHER INFORMATION
~A   DEPT     CALD       RHOB       CORR        SPR        SFL        ILD        ILM         GRD  
# ...
 2353.0000     8.5240     2.4994     0.0431   -49.2832     6.8683     7.5992     7.1261    98.3110
 2353.5000     8.5238     2.4954     0.0431   -49.4785     5.1213     7.3940     6.7453    98.9039
 2354.0000     8.5237     2.4994     0.0512   -49.4737     4.8473     7.3951     5.9330   102.4680
 2354.5000     8.5236     2.5339     0.0633   -49.4698     5.6674     7.3291     6.3860   106.6260
 2355.0000     8.5630     2.5580     0.0734   -50.0566     7.1313     7.4777     7.7460   108.4078
 2355.5000     8.5629     2.5640     0.0915   -50.4464     9.0561     7.6293     8.0370   110.7838
 2356.0000     8.4972     2.5680     0.0996   -50.8363    10.4910     7.7840     8.9750   114.3481
 2356.5000     8.4834     2.5438     0.0976   -51.4216     9.9304     7.9668     9.6602   113.7533
 2357.0000     8.4436     2.5176     0.0591   -52.2069     9.1454     8.1156    10.1160   107.2160
 2357.5000     8.4361     2.4611     0.0229   -52.7930     8.8165     8.5769    10.1179   101.2727
 2358.0000     8.4286     2.4691     0.0229   -53.1830     7.4749     8.7778    10.1197    98.3007
 2358.5000     8.4432     2.5095     0.0532   -53.3761     7.8272     8.9835    10.3096    96.8175
 2359.0000     8.4265     2.5176     0.0532   -53.3722     8.7407     9.2362    10.5995    98.5986
 2359.5000     8.4099     2.5297     0.0532   -53.5653    10.6014    10.0342    10.9981   101.5688
 2360.0000     8.3634     2.5337     0.0532   -53.5614    11.5170    13.9672    11.7305   105.1338
 2360.5000     8.3633     2.5276     0.0471   -53.5575    12.0603    17.4143    12.5121   105.1330
 2361.0000     8.3631     2.5095     0.0411   -53.9476    13.2228    20.5483    12.8634   104.5377
 2361.5000     8.3630     2.4973     0.0390   -53.7467    13.8466    20.5498    13.3472   106.8355
 2362.0000     8.3628     2.4913     0.0411   -53.7429    13.7225    19.2746    13.7225   118.2056
 2362.5000     8.4023     2.4832     0.0451   -53.7390    14.1084    16.3415    13.7251   120.5825
 2363.0000     8.4022     2.4691     0.0491   -52.9488    13.6016    13.3555    13.6021   127.7141
 2363.5000     8.4020     2.4751     0.0653   -52.7502    13.7296    12.8752    12.8752   131.2800
 2364.0000     8.3623     2.4872     0.0834   -52.1554    14.1172    12.2992    12.6432   133.0629
 2364.5000     8.3621     2.4973     0.1117   -51.5614    11.6424    12.0772    11.6424   138.4120
 2365.0000     8.3619     2.4973     0.0883   -51.1627    10.9196    11.4110    11.6446   141.9783
 2365.5000     8.3618     2.4993     0.0673   -50.9618     9.6929    10.7816    10.9216   148.5167
 2366.0000     8.3616     2.5034     0.0965   -50.9579    11.2287    10.1869     9.3450   159.1185
 2366.5000     8.4011     2.4993     0.1107   -50.9540    13.1283     9.3474     9.7859   165.6550
 2367.0000     8.4010     2.4993     0.1369   -50.9500    12.0891     9.0113    10.3417   166.8418
 2367.5000     8.3790     2.4549     0.1147   -50.9461     8.6882     8.0725     9.8798   165.0553
 2368.0000     8.3610     2.4145     0.0893   -50.9422     6.9706     7.5020     7.6411   156.7283
 2368.5000     8.3609     2.4084     0.0431   -51.1369     6.1874     7.1667     6.2444   158.5106
 2369.0000     8.4004     2.4125     0.0663   -51.7232     5.5941     6.5994     6.1883   160.8863
 2369.5000     8.4399     2.4724     0.0703   -51.9155     5.1513     6.3625     6.1330   169.8006
 2370.0000     8.4397     2.5324     0.0986   -52.1086     5.0584     6.0781     6.0225   173.9602
 2370.5000     8.6774     2.5924     0.1369   -52.2988     5.8064     6.1353     5.9686   162.6611
 2371.0000     8.7048     2.6527     0.2177   -52.2949     6.1364     6.0801     5.9694   158.4971
 2371.5000     8.7323     2.6608     0.2338   -52.0940     6.1375     6.0812     5.8623   154.9265
 2372.0000     8.7562     2.6628     0.2338   -51.8930     5.3983     6.0825     5.6519   147.3271
 2372.5000     8.6768     2.5255     0.1400   -51.8891     5.2043     6.0837     5.6527   126.5163
 2373.0000     8.6766     2.5154     0.0753   -52.0823     5.2055     6.0848     5.7059   125.3272
 2373.5000     8.6766     2.5134     0.0673   -52.0784     5.6550     6.1683     5.9207   127.7165
 2374.0000     8.7386     2.5438     0.0592   -52.2715     5.7082     6.2530     6.0868   128.2991
 2374.5000     8.7555     2.5719     0.1299   -51.8735     5.9229     6.3749     6.1441   127.1093
 2375.0000     8.7950     2.5800     0.1319   -50.8819     6.1454     6.4339     6.2021   124.7303
 2375.5000     8.8215     2.5840     0.1298   -50.6833     6.1465     6.5546     6.2033   122.3511
 2376.0000     8.8343     2.5901     0.1218   -50.4823     6.0360     6.6163     6.2044   121.1613
 2376.5000     8.8636     2.5961     0.1137   -50.2813     6.0371     6.6786     6.2628   118.7819
 2377.0000     8.8928     2.6002     0.1137   -50.2787     6.3217     6.5583     6.3800   118.4814
 2377.5000     8.9132     2.6022     0.1177   -50.2764     6.3812     6.5592     6.4401   119.6700
 2378.0000     8.9130     2.6002     0.1238   -50.6666     5.8763     6.5604     6.3240   120.8590
 2378.5000     9.0319     2.5880     0.1197   -50.8598     5.6654     6.5019     6.0971   121.4530
 2379.0000     9.0129     2.5678     0.1016   -51.0529     5.7191     6.4441     5.8247   121.4526
 2379.5000     8.9940     2.5456     0.0874   -51.2461     5.6679     6.4448     5.8795   118.4781
 2380.0000     9.0314     2.5416     0.0511   -51.6364     5.8806     6.6872     6.2711   117.2881
 2380.5000     9.0313     2.5517     0.0790   -52.0267     6.2149     6.6874     6.2722   116.0978
 2381.0000     8.9916     2.5597     0.1069   -52.6112     6.4486     6.6886     6.6285   115.5025
 2381.5000     8.8854     2.5577     0.1197   -52.8044     6.5090     6.8777     6.8777   115.5017
 2382.0000     8.8326     2.5557     0.1177   -52.9976     6.6921     6.9425     7.0065   116.0959
 2382.5000     8.7929     2.5173     0.0713   -52.9938     6.6933     6.9437     7.0078   123.2330
 2383.0000     8.8047     2.5133     0.0511   -52.9899     6.6945     6.9450     6.7563   127.1017
 2383.5000     8.8166     2.5032     0.0349   -53.1831     6.3375     6.9463     6.7575   129.4807
 2384.0000     8.8284     2.5012     0.0410   -53.1792     6.4557     6.8841     6.7588   130.0074
 2384.5000     8.8319     2.5112     0.0490   -52.7811     6.1109     6.6372     6.0549   129.4795
 2385.0000     8.8317     2.5234     0.0612   -52.3830     5.7313     6.2826     5.6789   129.4794
 2385.5000     8.8316     2.5435     0.0672   -51.7876     4.8590     5.8386     4.9038   128.2890
 2386.0000     8.8315     2.5415     0.0531   -51.7837     4.5575     5.7334     4.6846   127.0987
 2386.5000     8.8711     2.5274     0.0470   -51.3855     4.5165     5.4771     4.6002   124.7185
 2387.0000     8.9625     2.5314     0.0591   -51.3816     4.8616     5.2803     5.2323   123.5262
 2387.5000     9.0294     2.5637     0.0712   -50.7862     4.9527     5.0445     5.0445   122.9327
 2388.0000     9.0689     2.5940     0.2086   -49.7965     4.9534     4.9536     4.9536   123.5272
 2388.5000     9.2671     2.6223     0.2328   -49.7925     4.8199     4.8202     4.9092   127.6913
 2389.0000     9.4101     2.6465     0.2308   -49.1984     4.4793     4.7330     4.7767   128.2859
 2389.5000     9.4652     2.6295     0.2061   -49.1960     3.9037     4.6906     4.3584   126.5035
 2390.0000     9.6333     2.6125     0.1815   -49.1920     3.3709     4.6915     4.2405   125.9050
 2390.5000     9.7029     2.5954     0.1568   -49.1881     3.3407     4.6494     4.1641   127.6895
 2391.0000     9.8075     2.5799     0.1439   -49.3813     3.4983     4.6078     4.1649   129.1717
 2391.5000     9.9121     2.6303     0.2123   -49.5717     3.9790     4.5668     4.1658   130.6540
 2392.0000     9.9802     2.6324     0.2510   -49.5677     4.2049     4.5673     4.1666   132.1362
 2392.5000     9.9801     2.5587     0.2530   -50.1554     3.9805     4.4850     4.1673   133.6184
 2393.0000     9.9800     2.4850     0.2328   -51.1374     3.8025     4.4453     4.1681   133.6383
