~VERSION INFORMATION
 VERS.                2.0:   CWLS LOG ASCII STANDARD - VERSION 2.0
 WRAP.                 NO:   ONE LINE PER DEPTH STEP
~WELL INFORMATION
#MNEM.UNIT      DATA TYPE    INFORMATION
#----------   ------------   ------------------------------
 STRT.F          166.0000:   START DEPTH
 STOP.F         3150.5000:   STOP DEPTH
 STEP.F            0.5000:   STEP LENGTH
 NULL.          -999.2500:   NO VALUE
 COMP.    FENIX & SCISSON:   COMPANY
 WELL.  FENIX "AX" #41-34:   WELL
 FLD .              NPR 3:   FIELD
 LOC .      S34 T39N R78W:   LOCATION
 CNTY.            NATRONA:   COUNTY
 STAT.            WYOMING:   STATE
 CTRY. UNITED STATES OF AMERICA:   COUNTRY
 SRVC.       SCHLUMBERGER:   SERVICE COMPANY
 DATE.        05-FEB-1978:   LOGDATE
 API .     49025105680000:   API NUMBER
~CURVE INFORMATION
#MNEM.UNIT       API CODE    CURVE DESCRIPTION
#----------   ------------   ------------------------------
 DEPT.F                  :   
 CALD.IN     45 280 60 00:   CALIPER FROM DENSITY LOG
 RHOB.G/C3   45 350 01 00:   BULK DENSITY
 CORR.G/C3   45 356 01 00:   DENSITY CORRECTION
 SPR .MV     07 010 01 00:   SPONTANEOUS POTENTIAL
 SFL .OHMM   07 220 01 00:   SHALLOW FOCUSED LOG RESISTIVITY
 ILD .OHMM   07 120 46 00:   INDUCTION LOG DEEP RESISTIVITY
 ILM .OHMM   07 120 44 00:   INDUCTION LOG MEDIUM RESISTIVITY
 GRD .GAPI   45 310 01 00:   GAMMA RAY FROM DENSITY LOG
~PARAMETER INFORMATION
#MNEM.UNIT          VALUE    DESCRIPTION
#----------   ------------   ------------------------------
 EKB .F         5074.0000:   Kelly bushing
 EGL .F         5063.0000:   Ground level
 EDF .F            0.0000:   Drilling floor
 TD  .F         3151.0000:   Total depth
 DATE.        05-FEB-1978:   Date logged
 CLNT.            A2DTECH:   Client Code
 SL  . 330' FNL & 2310' FWL:   Surface Location
 PD  .                 GL:   Permanent Datum
 EPD .F              5063:   Elevation Permanent Datum
 LMF .                 KB:   Log Measured From
 DMF .                 KB:   Drilling Measured From
 DAPD.F                11:   Feet Above Permanent Datum
 DD  .F              3145:   Depth driller
 DL  .F              3151:   Depth logger
 BLI .F              3145:   Bottom log interval
 TLI .F               207:   Top log interval
 CS1 .IN            8.625:   Casing size
 CBD1.      8.625" @ 195':   Casing driller 1
 CBL1.F               207:   Casing logger 1
 BS1 .IN            7.875:   Bit size
 BSD1.F              3145:   Depth drilled with bit1
 DFT .            GEL/MUD:   Type fluid in hole
 DFD .                8.5:   Density
 DFV .                 31:   Viscosity
 DFPH.               10.5:   pH
 DFL .                5.6:   Fluid loss
 MSS .             MUDPIT:   Source of sample
 RMS .OHMM           1.63:   Rm
 MST .F                59:   Rm Meas. temp.
 RMF .OHMM           1.48:   Rmf
 MFST.F                59:   Rmf Meas. temp.
 RMC .OHMM           2.45:   Rmc
 MCST.F                59:   Rmc Meas. temp.
 MFSS.               MEAS:   Source Rmf.
 MCSS.               CALC:   Source Rmc.
 RMB .OHMM            .87:   Rm. at BHT
 BHT .F               110:   BHT.
 TCS .HRS            1300:   Time Circ. stopped
 TLAB.HRS            1920:   Time logger at bottom
 MRT .F               110:   Maximum recorded temp.
 LUN .               8035:   Logging unit number
 LUL .               CSPR:   Logging unit location
 ENGI.              CRAIG:   Recorded By
 WITN.         HARRINGTON:   Witnessed by
 ORIG.      2.5" 5" PRINT:   Origin of data
 UWI .     49025105680000:   Unique Well ID
 DICO. A2D TECHNOLOGIES, INC.:   Digitizing Company
~OTHER INFORMATION
~A   DEPT     CALD       RHOB       CORR        SPR        SFL        ILD        ILM         GRD  
# ...
  206.5000  -999.2500  -999.2500  -999.2500  -999.2500  -999.2500  -999.2500  -999.2500    63.1617
  207.0000  -999.2500  -999.2500  -999.2500   -59.9754  -999.2500  -999.2500  -999.2500    61.9771
  207.5000  -999.2500  -999.2500  -999.2500   -78.1380     0.6211  1665.8245  1965.8508    61.9781
  208.0000  -999.2500  -999.2500  -999.2500   -93.1880     2.2524  1533.4662  1712.8334    63.7588
  208.5000  -999.2500  -999.2500  -999.2500   -94.7604     9.6361   416.2766  1666.2802    64.3529
  209.0000  -999.2500  -999.2500  -999.2500   -88.9563    11.7669    31.1021   291.6282    62.5751
  209.5000  -999.2500     2.0024  -999.2500   -83.1522    10.6117     5.5047    66.3130    61.3899
  210.0000     8.7779     2.3410     0.0375   -75.5219     9.2459     4.6647     8.8716    62.5776
  210.5000     9.3862     2.4781     0.2250   -72.9704     8.9947    10.3131     9.3099    63.7648
  211.0000     9.9945     2.4943     0.2371   -72.3849     8.9329   727.9117    11.1360    64.3585
  211.5000    10.7553     2.4379     0.2492   -72.5853     9.4390  1013.6754    12.0126    71.2217
  212.0000    10.8739     2.3673     0.2533   -72.5872     9.7698   360.1312    19.0585    78.0850
  212.5000    11.0322     2.3842     0.2533   -73.9670     9.5700    13.4972   683.2966    84.9482
  213.0000    11.1509     2.4016     0.2513   -74.1673     8.8716    12.5108   394.8822    91.8115
  213.5000    11.1906     2.4016     0.2432   -74.9546     8.5124    12.1703   142.4575    96.3987
  214.0000    11.1907     2.2464     0.2392   -75.1565     8.5124    12.0035    13.6925    95.8062
  214.5000    11.1513     2.2465     0.1999   -75.7482     8.5124    12.1703    12.2635    88.5174
  215.0000    11.0723     2.2485     0.1541   -75.9493     8.8716    14.3618    30.0293    80.3872
  215.5000    10.8746     2.2667     0.0901   -76.1496    10.6117    16.2608    79.8686    79.7952
  216.0000    10.8352     2.4541     0.0984   -76.9393    12.6933    16.8315    30.6563    86.5897
  216.5000    10.7957     2.5025     0.1066   -77.5325    13.5985    14.7637    14.1723    91.0706
  217.0000    10.7562     2.5186     0.1183   -78.1250    11.5263    13.4044    12.2635    89.8855
  217.5000    10.7564     2.5166     0.0983   -78.9154     9.9053    12.1703    11.3685    85.1526
  218.0000    10.7169     2.4985     0.0690   -79.1157     8.5124    11.5965    10.6851    79.8034
  218.5000    10.7170     2.4905     0.0579   -79.7074     7.6240    11.2033    10.1122    78.6180
  219.0000    10.7171     2.5130     0.0599   -80.1057     7.0191    10.8983     9.3099    79.2126
  219.5000    10.7567     2.5409     0.0660   -80.1096     6.5971    10.6017     8.9947    79.2145
  220.0000    10.7568     2.5409     0.0660   -80.3107     6.5069    10.3131     8.8107    80.9958
  220.5000    10.8360     2.5013     0.0579   -81.2968     6.6427    10.1018     8.6305    82.7778
  221.0000    10.8757     2.4617     0.0519   -82.0865     6.9709    10.0324     8.8716    83.9659
  221.5000    10.9153     2.4281     0.0358   -82.0896     7.2152    10.0324     8.8716    85.1547
  222.0000    10.9945     2.4487     0.0499   -81.1892     6.8755    10.0894     8.8716    84.5626
  222.5000    11.0738     2.4745     0.0761   -80.5266     6.7814    10.0885     8.8716    85.1580
  223.0000    11.1134     2.4704     0.0802   -79.9411     6.8283    10.1808     8.8716    86.3462
  223.5000    11.1531     2.4550     0.0782   -79.9443     6.9709    10.4641     8.8716    87.5345
  224.0000    11.1532     2.4395     0.0419   -79.7533     7.3659    10.4635     8.8716    88.7235
  224.5000    11.1929     2.4201     0.0379   -79.7564     7.4680    10.4625     9.0568    89.9118
  225.0000    11.1930     2.4201     0.0339   -79.3666     7.4168    10.6555     9.0568    91.1009
  225.5000    11.1931     2.4201     0.0299   -79.3712     7.3659    10.7535     9.1194    91.1023
  226.0000    11.1932     2.4222     0.0319   -79.3751     7.3659    10.9510     9.1194    88.1370
  226.5000    11.1933     2.4242     0.0359   -79.3790     7.3659    11.0365     9.1194    86.9514
  227.0000    11.1934     2.4242     0.0379   -79.3829     7.3659    11.1227     9.0568    90.5146
  227.5000    11.1935     2.4242     0.0380   -79.9761     7.4680    11.2096     9.0568    92.2966
  228.0000    11.1936     2.4384     0.0380   -80.7666     7.6767    11.2972     9.1194    93.4859
  228.5000    11.1937     2.4827     0.0521   -81.5554     7.8370    11.1497     9.5700    91.1131
  229.0000    11.1938     2.5029     0.0581   -82.1510     8.0006    11.2510     9.7698    88.1474
  229.5000    11.1939     2.4989     0.0582   -82.3513     8.0006    11.2506     9.4390    86.3681
  230.0000    11.1940     2.4586     0.0582   -83.1394     8.0802    11.2498     9.6361    85.7766
  230.5000    11.1941     2.4586     0.0542   -83.7350     7.8597    11.1458     9.6361    88.1523
  231.0000    11.1942     2.4720     0.0501   -83.7373     7.7871    10.9416     9.0568    91.1225
  231.5000    11.1943     2.4889     0.0424   -83.7412     7.5053    10.7411     8.8716    93.4984
  232.0000    11.1944     2.4909     0.0401   -83.7443     7.4360    10.7402     8.8716    93.5006
  232.5000    11.1945     2.4762     0.0320   -83.7482     7.2997    10.6415     8.8716    93.5021
  233.0000    11.1946     2.4615     0.0281   -83.5556     7.2990    10.6401     8.8716    94.6917
  233.5000    11.1947     2.4446     0.0280   -83.3631     7.5026    10.6392     8.8716    95.2868
  234.0000    11.2344     2.4486     0.0280   -83.1713     7.6409    10.6380     8.9329    96.4765
  234.5000    11.2345     2.4507     0.0301   -82.5858     7.7108    10.6370     9.0568    95.8843
  235.0000    11.2742     2.4527     0.0321   -82.1968     7.7102    10.6360     9.0142    93.5117
  235.5000    11.3138     2.4608     0.0321   -81.8078     7.7094    10.6351     9.0134    91.7321
  236.0000    11.3140     2.4789     0.0301   -81.4188     7.5683    10.6341     9.0126    90.8412
  236.5000    11.3536     2.4930     0.0362   -80.6362     7.5677    10.6331     9.0117    90.8420
  237.0000    11.3934     2.5031     0.0508   -80.4444     7.4290    10.6321     9.0108    90.8441
  237.5000    11.4330     2.5152     0.0655   -80.2518     7.3604    10.6306     9.0101    90.2518
  238.0000    11.4727     2.5193     0.0805   -80.2557     7.2258    10.5330     9.0093    88.4726
  238.5000    11.4728     2.4991     0.0846   -80.2596     7.2251    10.5320     9.0085    87.8802
  239.0000    11.5125     2.4931     0.0888   -80.0670     7.0275    10.5313     9.0075    86.1009
  239.5000    11.5522     2.4851     0.0947   -80.0709     7.0272    10.4340     8.9242    84.3208
  240.0000    11.5919     2.4810     0.0947   -80.0748     6.9623    10.2430     8.8418    86.4043
  240.5000    11.5920     2.4307     0.0474   -80.2751     6.9617    10.1481     8.6799    90.5625
  241.0000    11.6317     2.4065     0.0262   -80.6742     6.9610    10.0544     8.5211    94.7217
  241.5000    11.6318     2.4066     0.0182   -81.2643     6.8967    10.0534     8.4423    94.7232
  242.0000    11.6320     2.4408     0.0303   -81.6619     6.8961     9.9604     8.4416    92.9438
  242.5000    11.6321     2.4630     0.0444   -82.0587     6.9591     9.5999     8.4408    92.3514
  243.0000    11.6322     2.4670     0.0543   -82.2590     6.9585     9.3380     8.3628    92.0543
  243.5000    11.6323     2.4731     0.0625   -82.6566     6.8941     9.0832     8.3620    92.0550
  244.0000    11.6324     2.4973     0.0676   -82.6604     6.4639     8.8353     8.2849    90.8694
  244.5000    11.6325     2.5074     0.1159   -82.6643     6.1730     8.5943     7.9850    89.6829
  245.0000    11.6326     2.5154     0.1452   -82.6682     5.8952     8.4365     7.5558    89.0911
  245.5000    11.6327     2.5135     0.1452   -82.6721     5.1354     8.4362     7.2154    89.0926
  246.0000    11.6329     2.5115     0.1301   -82.4795     4.9495     8.3582     6.8908    90.8766
  246.5000    11.6330     2.5014     0.1237   -82.2870     5.0410     8.2810     6.9539    93.8479
