~VERSION INFORMATION
 VERS.                2.0:   CWLS LOG ASCII STANDARD - VERSION 2.0
 WRAP.                 NO:   ONE LINE PER DEPTH STEP
~WELL INFORMATION
#MNEM.UNIT      DATA TYPE    INFORMATION
#----------   ------------   ------------------------------
 STRT.F          166.0000:   START DEPTH
 STOP.F         3150.5000:   STOP DEPTH
 STEP.F            0.5000:   STEP LENGTH
 NULL.          -999.2500:   NO VALUE
 COMP.    FENIX & SCISSON:   COMPANY
 WELL.  FENIX "AX" #41-34:   WELL
 FLD .              NPR 3:   FIELD
 LOC .      S34 T39N R78W:   LOCATION
 CNTY.            NATRONA:   COUNTY
 STAT.            WYOMING:   STATE
 CTRY. UNITED STATES OF AMERICA:   COUNTRY
 SRVC.       SCHLUMBERGER:   SERVICE COMPANY
 DATE.        05-FEB-1978:   LOGDATE
 API .     49025105680000:   API NUMBER
~CURVE INFORMATION
#MNEM.UNIT       API CODE    CURVE DESCRIPTION
#----------   ------------   ------------------------------
 DEPT.F                  :   
 CALD.IN     45 280 60 00:   CALIPER FROM DENSITY LOG
 RHOB.G/C3   45 350 01 00:   BULK DENSITY
 CORR.G/C3   45 356 01 00:   DENSITY CORRECTION
 SPR .MV     07 010 01 00:   SPONTANEOUS POTENTIAL
 SFL .OHMM   07 220 01 00:   SHALLOW FOCUSED LOG RESISTIVITY
 ILD .OHMM   07 120 46 00:   INDUCTION LOG DEEP RESISTIVITY
 ILM .OHMM   07 120 44 00:   INDUCTION LOG MEDIUM RESISTIVITY
 GRD .GAPI   45 310 01 00:   GAMMA RAY FROM DENSITY LOG
~PARAMETER INFORMATION
#MNEM.UNIT          VALUE    DESCRIPTION
#----------   ------------   ------------------------------
 EKB .F         5074.0000:   Kelly bushing
 EGL .F         5063.0000:   Ground level
 EDF .F            0.0000:   Drilling floor
 TD  .F         3151.0000:   Total depth
 DATE.        05-FEB-1978:   Date logged
 CLNT.            A2DTECH:   Client Code
 SL  . 330' FNL & 2310' FWL:   Surface Location
 PD  .                 GL:   Permanent Datum
 EPD .F              5063:   Elevation Permanent Datum
 LMF .                 KB:   Log Measured From
 DMF .                 KB:   Drilling Measured From
 DAPD.F                11:   Feet Above Permanent Datum
 DD  .F              3145:   Depth driller
 DL  .F              3151:   Depth logger
 BLI .F              3145:   Bottom log interval
 TLI .F               207:   Top log interval
 CS1 .IN            8.625:   Casing size
 CBD1.      8.625" @ 195':   Casing driller 1
 CBL1.F               207:   Casing logger 1
 BS1 .IN            7.875:   Bit size
 BSD1.F              3145:   Depth drilled with bit1
 DFT .            GEL/MUD:   Type fluid in hole
 DFD .                8.5:   Density
 DFV .                 31:   Viscosity
 DFPH.               10.5:   pH
 DFL .                5.6:   Fluid loss
 MSS .             MUDPIT:   Source of sample
 RMS .OHMM           1.63:   Rm
 MST .F                59:   Rm Meas. temp.
 RMF .OHMM           1.48:   Rmf
 MFST.F                59:   Rmf Meas. temp.
 RMC .OHMM           2.45:   Rmc
 MCST.F                59:   Rmc Meas. temp.
 MFSS.               MEAS:   Source Rmf.
 MCSS.               CALC:   Source Rmc.
 RMB .OHMM            .87:   Rm. at BHT
 BHT .F               110:   BHT.
 TCS .HRS            1300:   Time Circ. stopped
 TLAB.HRS            1920:   Time logger at bottom
 MRT .F               110:   Maximum recorded temp.
 LUN .               8035:   Logging unit number
 LUL .               CSPR:   Logging unit location
 ENGI.              CRAIG:   Recorded By
 WITN.         HARRINGTON:   Witnessed by
 ORIG.      2.5" 5" PRINT:   Origin of data
 UWI .     49025105680000:   Unique Well ID
 DICO. A2D TECHNOLOGIES, INC.:   Digitizing Company
~OTHER INFORMATION
~A   DEPT     CALD       RHOB       CORR        SPR        SFL        ILD        ILM         GRD  
# ...
 1381.0000    10.0870     2.5611     0.0642   -57.8254     9.8856    11.2901    10.0690   101.2056
 1381.5000    10.0490     2.5631     0.0480   -58.0253     9.8837    11.2395    10.0671   100.6080
 1382.0000    10.0488     2.5590     0.0349   -58.0286     9.7916    11.3407    10.0651    97.6401
 1382.5000    10.0881     2.5671     0.0440   -58.0320     8.9306    11.2354    10.0632    97.6377
 1383.0000    10.0879     2.5610     0.0480   -58.2318     8.8474    11.2334    10.0612    98.2282
 1383.5000    10.0877     2.5489     0.0500   -58.6288     8.7649    11.2313    10.0585   100.2329
 1384.0000    10.0875     2.5489     0.0500   -59.0245     8.7633    11.2293     9.9658   103.5581
 1384.5000    10.0873     2.5408     0.0500   -59.4209     9.0064    11.2272    10.0559   103.5557
 1385.0000    10.0871     2.5388     0.0499   -60.0137     9.0879    11.1238    10.0541   101.7724
 1385.5000    10.0869     2.5327     0.0479   -60.8030     9.0862    11.2022    10.0519    98.8056
 1386.0000    10.0867     2.5286     0.0479   -61.1994     9.0845    11.2211    10.0500    98.2092
 1386.5000    10.0865     2.5286     0.0479   -60.4167     9.1667    11.2190    10.0482    99.3926
 1387.0000    10.0863     2.5326     0.0478   -59.6360     9.1650    11.2170    10.0464    99.9819
 1387.5000    10.0861     2.5367     0.0498   -59.6373     9.0796    11.1124     9.9527    99.9795
 1388.0000    10.0860     2.5427     0.0498   -59.8378     8.9949    11.0089    10.0427   101.1617
 1388.5000    10.0857     2.5447     0.0538   -60.0370     8.9111    11.0068    10.0409   102.1454
 1389.0000    10.0856     2.5507     0.0558   -60.0403     8.9088    10.8042     9.9465   102.3427
 1389.5000    10.0853     2.5547     0.0558   -60.0430     8.6652    10.7035     9.8549   101.1534
 1390.0000    10.0456     2.5547     0.0558   -60.0469     8.4288    10.6030     9.6735    96.4069
 1390.5000    10.0849     2.5406     0.0538   -59.8531     8.2733    10.1261     9.2377    96.9974
 1391.0000    10.0848     2.5285     0.0477   -59.2677     8.0477    10.1250     9.1516    99.3653
 1391.5000    10.0845     2.5265     0.0356   -58.8780     8.1204    10.1224     9.1489   101.7344
 1392.0000    10.0844     2.5305     0.0315   -58.8807     8.1938    10.1205     9.1483   104.6964
 1392.5000    10.0843     2.5365     0.0476   -58.6876     8.1923    10.1190     9.0630   104.6928
 1393.0000    10.0840     2.5365     0.0496   -58.6909     8.2664    10.1168     9.0613   104.6916
 1393.5000    10.0837     2.5244     0.0436   -58.6942     8.4177    10.0225     9.1433   102.7234
 1394.0000    10.0836     2.5244     0.0375   -58.5038     8.4168    10.0207     9.0580   102.3130
 1394.5000    10.0833     2.5243     0.0335   -58.5044     8.0371    10.0189     8.9736   102.9035
 1395.0000    10.0832     2.5304     0.0355   -58.5084     7.8894    10.0170     8.9720   104.6786
 1395.5000    10.0831     2.5364     0.0475   -58.3153     7.8880     9.9237     8.9703   105.2679
 1396.0000    10.1038     2.5545     0.0596   -58.5158     7.8144     9.9219     8.8867   105.8584
 1396.5000    10.1221     2.5686     0.0949   -58.9120     7.8851    10.0116     8.8851   105.8548
 1397.0000    10.1219     2.5707     0.1140   -59.3076     7.8836    10.0097     8.9664   105.2596
 1397.5000    10.1217     2.5626     0.1079   -60.0974     8.1765    10.0079     8.9638   104.6655
 1398.0000    10.1215     2.5444     0.0888   -60.1008     8.2510    10.1915     8.9621   101.7205
 1398.5000    10.1214     2.5081     0.0434   -60.1041     8.4799    10.1897     9.0432   101.6940
 1399.0000    10.1002     2.5343     0.0434   -60.1074     8.8767    10.0024     9.3791   103.3064
 1399.5000    10.0814     2.5484     0.0474   -60.3072     8.8750    10.2799     9.3780   104.6513
 1400.0000    10.0812     2.5504     0.0514   -60.3105     9.2057    10.2780     9.3763   104.6489
 1400.5000    10.0502     2.5466     0.0529   -59.9606     8.8481    10.2759     9.3743   101.6980
 1401.0000    10.0410     2.5463     0.0534   -59.9227     8.2430    10.3705     9.2883   101.6738
 1401.5000    10.0408     2.5463     0.0494   -59.3359     8.1667    10.6587     9.2870   101.0738
 1402.0000    10.0797     2.5483     0.0473   -59.3385     8.3171    10.8550     9.7224   100.4762
 1402.5000    10.0397     2.5463     0.0493   -59.3410     8.7871    10.8537     9.9928   100.4715
 1403.0000    10.0394     2.5644     0.0554   -59.1466     9.1148    10.9525     9.9916   102.3058
 1403.5000     9.9994     2.5664     0.0675   -58.5602     9.3683    11.1542     9.9902   104.1401
 1404.0000     9.9595     2.5483     0.0755   -57.7769     9.5408    11.3588    10.3630   104.0096
 1404.5000     9.9591     2.5342     0.0432   -57.7789    10.2668    11.3586    10.5538    98.0763
 1405.0000     9.9586     2.5221     0.0432   -57.7824    10.2656    11.3570    10.5526    95.1025
 1405.5000     9.9583     2.5221     0.0432   -57.5880    10.1706    11.3557    10.5514    96.5750
 1406.0000     9.9579     2.5220     0.0432   -57.7870     9.8931    11.3538    10.3579    97.4644
 1406.5000    10.0365     2.5240     0.0432   -58.3789     8.7784    11.2347    10.0752    99.8311
 1407.0000    10.0362     2.5462     0.0513   -58.5779     8.3072    11.1168     9.9820    98.5182
 1407.5000    10.0357     2.5543     0.0634   -58.7769     8.1551    11.0002     9.8896    97.4454
 1408.0000    10.0354     2.5543     0.0714   -58.7795     8.1541    10.8848     9.7085    96.8477
 1408.5000    10.0349     2.5482     0.0442   -59.3714     8.1531    10.7706     9.6780    97.4335
 1409.0000    10.0346     2.5361     0.0361   -59.7669     8.5352    10.6395     9.6477    98.9025
 1409.5000    10.0341     2.5280     0.0341   -60.1624     8.8535    10.6382     9.6174    98.3073
 1410.0000    10.0733     2.5220     0.0321   -60.1650     8.8523    10.6370     9.5873    96.5240
 1410.5000    10.0847     2.5220     0.0361   -60.1680     8.8516    10.6358     9.5572    92.9597
 1411.0000    10.0960     2.5179     0.0441   -60.1706     8.8499    10.6346     9.5248    91.1740
 1411.5000    10.1073     2.5139     0.0290   -60.1731     8.8491    10.6340     9.5239    91.4692
 1412.0000    10.1113     2.5139     0.0250   -60.1757     8.7674    10.6006     9.5227    92.6502
 1412.5000    10.1108     2.5259     0.0249   -60.1782     8.2204    10.5673     9.5210    99.7550
 1413.0000    10.1106     2.5441     0.0431   -60.1808     8.2194    10.5341     9.4335   104.4955
 1413.5000    10.1100     2.5501     0.0511   -59.7903     8.2184    10.5010     9.4326   109.2312
 1414.0000    10.1492     2.5481     0.0531   -59.4009     8.2174    10.4681     9.4322   107.4479
 1414.5000    10.1487     2.5400     0.0491   -59.2059     8.2923    10.4324     9.3773   105.0693
 1415.0000    10.1484     2.5380     0.0410   -58.6189     8.5231    10.4321     9.1726   104.4741
 1415.5000    10.1479     2.5400     0.0370   -58.4249     8.6801    10.4058     9.1715   102.1715
 1416.0000    10.1081     2.5460     0.0350   -58.4274     8.3658    10.3796     9.1705   101.4955
 1416.5000    10.1076     2.5440     0.0329   -57.8404     8.2879    10.3534     9.1694   102.0836
 1417.0000    10.1073     2.5339     0.0329   -57.6464     8.2116    10.3304     9.1683   103.2622
 1417.5000    10.1070     2.5379     0.0319   -57.2554     8.2864    10.1420     9.1672   103.2574
 1418.0000    10.1065     2.5480     0.0395   -57.2584     8.2096    10.1408     9.1661   102.0646
 1418.5000    10.1062     2.5641     0.0471   -56.8674     8.2087    10.0469     9.1650   101.4670
 1419.0000    10.1060     2.5641     0.0601   -56.8704     8.1327    10.0457     9.1639   103.0413
 1419.5000    10.1054     2.5439     0.0427   -57.2660     8.0574    10.0445     9.1629   103.2313
 1420.0000    10.1049     2.5318     0.0365   -57.2685     8.0564    10.2295     9.1618   101.4479
 1420.5000    10.1046     2.5157     0.0303   -58.0571     8.0555    10.0419     9.1610    97.2908
 1421.0000    10.1041     2.5238     0.0248   -58.6492     8.1288    10.0407     9.0759    97.2884
