~VERSION INFORMATION
 VERS.                2.0:   CWLS LOG ASCII STANDARD - VERSION 2.0
 WRAP.                 NO:   ONE LINE PER DEPTH STEP
~WELL INFORMATION
#MNEM.UNIT      DATA TYPE    INFORMATION
#----------   ------------   ------------------------------
 STRT.F          166.0000:   START DEPTH
 STOP.F         3150.5000:   STOP DEPTH
 STEP.F            0.5000:   STEP LENGTH
 NULL.          -999.2500:   NO VALUE
 COMP.    FENIX & SCISSON:   COMPANY
 WELL.  FENIX "AX" #41-34:   WELL
 FLD .              NPR 3:   FIELD
 LOC .      S34 T39N R78W:   LOCATION
 CNTY.            NATRONA:   COUNTY
 STAT.            WYOMING:   STATE
 CTRY. UNITED STATES OF AMERICA:   COUNTRY
 SRVC.       SCHLUMBERGER:   SERVICE COMPANY
 DATE.        05-FEB-1978:   LOGDATE
 API .     49025105680000:   API NUMBER
~CURVE INFORMATION
#MNEM.UNIT       API CODE    CURVE DESCRIPTION
#----------   ------------   ------------------------------
 DEPT.F                  :   
 CALD.IN     45 280 60 00:   CALIPER FROM DENSITY LOG
 RHOB.G/C3   45 350 01 00:   BULK DENSITY
 CORR.G/C3   45 356 01 00:   DENSITY CORRECTION
 SPR .MV     07 010 01 00:   SPONTANEOUS POTENTIAL
 SFL .OHMM   07 220 01 00:   SHALLOW FOCUSED LOG RESISTIVITY
 ILD .OHMM   07 120 46 00:   INDUCTION LOG DEEP RESISTIVITY
 ILM .OHMM   07 120 44 00:   INDUCTION LOG MEDIUM RESISTIVITY
 GRD .GAPI   45 310 01 00:   GAMMA RAY FROM DENSITY LOG
~PARAMETER INFORMATION
#MNEM.UNIT          VALUE    DESCRIPTION
#----------   ------------   ------------------------------
 EKB .F         5074.0000:   Kelly bushing
 EGL .F         5063.0000:   Ground level
 EDF .F            0.0000:   Drilling floor
 TD  .F         3151.0000:   Total depth
 DATE.        05-FEB-1978:   Date logged
 CLNT.            A2DTECH:   Client Code
 SL  . 330' FNL & 2310' FWL:   Surface Location
 PD  .                 GL:   Permanent Datum
 EPD .F              5063:   Elevation Permanent Datum
 LMF .                 KB:   Log Measured From
 DMF .                 KB:   Drilling Measured From
 DAPD.F                11:   Feet Above Permanent Datum
 DD  .F              3145:   Depth driller
 DL  .F              3151:   Depth logger
 BLI .F              3145:   Bottom log interval
 TLI .F               207:   Top log interval
 CS1 .IN            8.625:   Casing size
 CBD1.      8.625" @ 195':   Casing driller 1
 CBL1.F               207:   Casing logger 1
 BS1 .IN            7.875:   Bit size
 BSD1.F              3145:   Depth drilled with bit1
 DFT .            GEL/MUD:   Type fluid in hole
 DFD .                8.5:   Density
 DFV .                 31:   Viscosity
 DFPH.               10.5:   pH
 DFL .                5.6:   Fluid loss
 MSS .             MUDPIT:   Source of sample
 RMS .OHMM           1.63:   Rm
 MST .F                59:   Rm Meas. temp.
 RMF .OHMM           1.48:   Rmf
 MFST.F                59:   Rmf Meas. temp.
 RMC .OHMM           2.45:   Rmc
 MCST.F                59:   Rmc Meas. temp.
 MFSS.               MEAS:   Source Rmf.
 MCSS.               CALC:   Source Rmc.
 RMB .OHMM            .87:   Rm. at BHT
 BHT .F               110:   BHT.
 TCS .HRS            1300:   Time Circ. stopped
 TLAB.HRS            1920:   Time logger at bottom
 MRT .F               110:   Maximum recorded temp.
 LUN .               8035:   Logging unit number
 LUL .               CSPR:   Logging unit location
 ENGI.              CRAIG:   Recorded By
 WITN.         HARRINGTON:   Witnessed by
 ORIG.      2.5" 5" PRINT:   Origin of data
 UWI .     49025105680000:   Unique Well ID
 DICO. A2D TECHNOLOGIES, INC.:   Digitizing Company
~OTHER INFORMATION
~A   DEPT     CALD       RHOB       CORR        SPR        SFL        ILD        ILM         GRD  
# ...
  773.5000    11.6917     2.3052     0.2157   -61.1531     6.2901     7.6984     6.7698   103.4621
  774.0000    12.8379     2.0897     0.1183   -61.9409     6.1751     7.9127     6.8315   101.0905
  774.5000    12.9565     2.0595     0.0584   -62.5321     6.1745     8.1329     6.9571   102.8692
  775.0000    10.7826     2.2272     0.0181   -63.1235     6.1739     8.1322     6.9569   104.6478
  775.5000    10.5159     2.3626     0.0222   -63.5180     6.4634     8.1314     7.0853   113.5411
  776.0000    10.4369     2.4789     0.0414   -63.5193     6.5226     8.1307     7.2820   115.6126
  776.5000    10.3578     2.4829     0.0394   -62.9308     6.6427     8.1299     7.3487   112.9482
  777.0000    10.3444     2.4930     0.0374   -62.9315     6.7034     7.9813     7.3481   111.1231
  777.5000    10.3309     2.4991     0.0444   -63.1294     6.5809     8.2034     7.3474   110.5767
  778.0000    10.3183     2.5132     0.0545   -63.1307     6.5201     8.2027     7.3467   112.3553
  778.5000    10.3183     2.5233     0.0667   -63.3286     6.5195     8.2776     7.3461   114.7269
  779.0000    10.2788     2.5294     0.0747   -63.5268     6.5189     8.2007     7.3451   115.3198
  779.5000    10.2788     2.5375     0.0808   -63.9214     6.5183     8.2761     7.3450   114.7269
  780.0000    10.2788     2.5334     0.0808   -63.9227     6.5779     8.4287     7.3447   112.9482
  780.5000    10.2788     2.5274     0.0667   -63.3338     6.6991     8.7433     7.4919   108.7980
  781.0000    10.2788     2.5153     0.0466   -62.7450     6.8226     8.7425     7.6421   108.2051
  781.5000    10.2788     2.5053     0.0446   -62.1561     7.0126     8.8223     7.8293   108.7980
  782.0000    10.2788     2.5093     0.0507   -61.7639     7.2078     8.8215     7.8292   110.5767
  782.5000    10.2788     2.5174     0.0560   -61.3717     7.2074     8.9842     7.8116   109.9838
  783.0000    10.2788     2.5275     0.0613   -61.3729     7.0753     8.9833     7.7942   108.6093
  783.5000    10.2788     2.5296     0.0648   -61.3742     7.0100     8.8191     7.7767   107.6123
  784.0000    10.2788     2.5054     0.0467   -61.3754     6.8818     8.8996     7.7593   107.0194
  784.5000    10.2788     2.5054     0.0467   -61.3766     6.8183     8.8175     7.7420   105.8336
  785.0000    10.2788     2.5074     0.0508   -61.3778     6.7553     8.8166     7.7246   105.2407
  785.5000    10.2788     2.5162     0.0508   -61.3790     6.6930     8.9792     7.7073   106.4265
  786.0000    10.2788     2.5277     0.0629   -61.5769     6.6924     8.8963     7.6901   106.4265
  786.5000    10.3183     2.5317     0.0630   -61.5781     6.7535     8.8142     7.6802   106.4265
  787.0000    10.3400     2.5257     0.0549   -61.5793     6.7529     8.8134     7.6439   105.2407
  787.5000    10.3578     2.5176     0.0489   -62.1708     6.8145     8.8939     7.6078   104.6478
  788.0000    10.3578     2.5116     0.0408   -62.3688     6.8139     8.8931     7.5718   104.0549
  788.5000    10.3974     2.5197     0.0469   -62.3700     6.8133     8.8924     7.5360   104.0549
  789.0000    10.3974     2.5378     0.0590   -62.1745     6.8127     8.7297     7.5003   104.6478
  789.5000    10.3974     2.5338     0.0671   -62.3725     6.7498     8.4915     7.4670   105.2407
  790.0000    10.3183     2.5218     0.0671   -62.3737     6.7492     8.3359     7.4665   108.2051
  790.5000    10.3578     2.5157     0.0671   -62.5717     6.6869     8.1838     7.4662   108.7980
  791.0000    10.3578     2.5137     0.0672   -62.3761     6.5046     8.1083     7.2623   108.7980
  791.5000    10.3578     2.5137     0.0622   -62.3774     6.4445     8.0334     7.1295   106.5377
  792.0000    10.3578     2.5178     0.0607   -62.3786     6.2689     8.1068     6.9991   105.2407
  792.5000    10.3578     2.5198     0.0593   -61.9862     6.1542     8.0319     7.0630   106.3551
  793.0000    10.3578     2.5219     0.0578   -61.7907     6.1537     8.0312     6.9978   107.0194
  793.5000    10.3578     2.5239     0.0564   -61.3983     6.0968     7.9571     6.9972   107.0194
  794.0000    10.3183     2.5219     0.0522   -60.8094     6.1525     7.9565     7.0611   107.0194
  794.5000    10.3183     2.5179     0.0471   -60.4167     6.0957     8.0290     6.9959   107.0194
  795.0000    10.3183     2.5018     0.0290   -60.4179     6.1514     7.9549     6.9953   104.6478
  795.5000    10.3183     2.4796     0.0210   -60.6161     6.1507     7.9542     6.9944   103.4621
  796.0000    10.2788     2.4696     0.0230   -60.6171     6.1502     7.9534     7.0158   101.0905
  796.5000    10.3183     2.4716     0.0332   -61.9960     6.2635     7.9529     7.0373   100.4976
  797.0000    10.3183     2.5099     0.0433   -62.3909     6.2630     8.0253     7.0588   103.4582
  797.5000    10.3183     2.5180     0.0535   -62.5889     6.4371     8.0986     7.0804   105.2407
  798.0000    10.3183     2.5201     0.0594   -63.3775     6.4963     8.1726     7.1021   106.4265
  798.5000    10.3183     2.5140     0.0554   -63.3787     6.4955     8.0231     7.1204   109.3909
  799.0000    10.2788     2.5040     0.0514   -63.5768     6.4356     8.0224     7.1197   108.2051
  799.5000    10.2788     2.5000     0.0514   -63.7749     6.2029     8.0217     7.1190   108.2051
  800.0000    10.2788     2.5080     0.0575   -63.7761     6.2024     8.0209     7.1183   108.2051
  800.5000    10.2790     2.5164     0.0608   -64.2746     6.1528     8.0201     7.1177   102.5188
  801.0000    10.2790     2.5322     0.0655   -64.3658     6.1454     8.0206     7.1178    98.4755
  801.5000    10.2794     2.5383     0.0695   -63.9716     6.1452     7.9471     6.9883    96.9474
  802.0000    10.2751     2.5343     0.0540   -63.5774     6.2018     7.9470     6.9882    98.1379
  802.5000    10.2709     2.5000     0.0413   -63.1832     6.2016     7.9468     6.9880    98.7332
  803.0000    10.2667     2.5000     0.0454   -62.9859     6.2015     7.9467     7.0523   100.3108
  803.5000    10.2624     2.5020     0.0474   -62.7886     6.2013     8.0198     7.0522   101.8884
  804.0000    10.2582     2.5020     0.0433   -62.5913     6.2012     8.0197     6.9876   102.8918
  804.5000    10.2540     2.5020     0.0390   -62.1972     6.2010     8.0196     7.0519   103.4883
  805.0000    10.2497     2.4960     0.0346   -61.8032     6.3742     8.0194     7.0518   103.4895
  805.5000    10.2455     2.4818     0.0303   -61.4092     6.3740     8.0933     6.9872   101.1226
  806.0000    10.2413     2.4818     0.0292   -60.6217     6.2578     8.0931     7.1165   101.1250
  806.5000    10.2370     2.4798     0.0373   -60.6214     6.4325     8.0190     7.0513   101.7215
  807.0000    10.2328     2.4778     0.0373   -60.6209     6.4324     8.1675     7.1432   101.7238
  807.5000    10.2286     2.4758     0.0373   -60.8203     6.5514     8.2427     7.2362   103.1436
  808.0000    10.2243     2.4778     0.0353   -60.8201     6.7343     8.4729     7.3305   104.1014
  808.5000    10.2201     2.4738     0.0272   -60.8163     6.7342     8.7094     7.4260   107.0682
  809.0000    10.2159     2.4637     0.0191   -60.8158     6.7341     8.8708     7.5189   108.2576
  809.5000    10.2116     2.4516     0.0191   -61.2087     6.8588     8.7896     7.6062   106.4825
  810.0000    10.2074     2.4677     0.0272   -61.2084     6.8587     8.7091     7.6945   105.2990
  810.5000    10.2032     2.5101     0.0534   -61.9947     6.8585     8.6293     7.7838   104.7097
  811.0000    10.1989     2.5302     0.0716   -62.3876     6.8584     8.8702     7.8742   104.7121
  811.5000    10.1947     2.5363     0.0796   -62.7804     6.8582     8.8701     7.9657   106.4932
  812.0000    10.1905     2.5363     0.0796   -62.9799     6.8581     8.9518     8.0174   107.0896
  812.5000    10.1862     2.5302     0.0736   -63.7627     6.9212     9.1177     8.2372   109.4648
  813.0000    10.1820     2.5242     0.0576   -64.1555     7.1802     9.2866     8.5495   109.1672
  813.5000    10.1778     2.5080     0.0454   -64.3516     7.7276     9.4588     8.5495   106.2062
