~VERSION INFORMATION
 VERS.                2.0:   CWLS LOG ASCII STANDARD - VERSION 2.0
 WRAP.                 NO:   ONE LINE PER DEPTH STEP
~WELL INFORMATION
#MNEM.UNIT      DATA TYPE    INFORMATION
#----------   ------------   ------------------------------
 STRT.F          166.0000:   START DEPTH
 STOP.F         3150.5000:   STOP DEPTH
 STEP.F            0.5000:   STEP LENGTH
 NULL.          -999.2500:   NO VALUE
 COMP.    FENIX & SCISSON:   COMPANY
 WELL.  FENIX "AX" #41-34:   WELL
 FLD .              NPR 3:   FIELD
 LOC .      S34 T39N R78W:   LOCATION
 CNTY.            NATRONA:   COUNTY
 STAT.            WYOMING:   STATE
 CTRY. UNITED STATES OF AMERICA:   COUNTRY
 SRVC.       SCHLUMBERGER:   SERVICE COMPANY
 DATE.        05-FEB-1978:   LOGDATE
 API .     49025105680000:   API NUMBER
~CURVE INFORMATION
#MNEM.UNIT       API CODE    CURVE DESCRIPTION
#----------   ------------   ------------------------------
 DEPT.F                  :   
 CALD.IN     45 280 60 00:   CALIPER FROM DENSITY LOG
 RHOB.G/C3   45 350 01 00:   BULK DENSITY
 CORR.G/C3   45 356 01 00:   DENSITY CORRECTION
 SPR .MV     07 010 01 00:   SPONTANEOUS POTENTIAL
 SFL .OHMM   07 220 01 00:   SHALLOW FOCUSED LOG RESISTIVITY
 ILD .OHMM   07 120 46 00:   INDUCTION LOG DEEP RESISTIVITY
 ILM .OHMM   07 120 44 00:   INDUCTION LOG MEDIUM RESISTIVITY
 GRD .GAPI   45 310 01 00:   GAMMA RAY FROM DENSITY LOG
~PARAMETER INFORMATION
#MNEM.UNIT          VALUE    DESCRIPTION
#----------   ------------   ------------------------------
 EKB .F         5074.0000:   Kelly bushing
 EGL .F         5063.0000:   Ground level
 EDF .F            0.0000:   Drilling floor
 TD  .F         3151.0000:   Total depth
 DATE.        05-FEB-1978:   Date logged
 CLNT.            A2DTECH:   Client Code
 SL  . 330' FNL & 2310' FWL:   Surface Location
 PD  .                 GL:   Permanent Datum
 EPD .F              5063:   Elevation Permanent Datum
 LMF .                 KB:   Log Measured From
 DMF .                 KB:   Drilling Measured From
 DAPD.F                11:   Feet Above Permanent Datum
 DD  .F              3145:   Depth driller
 DL  .F              3151:   Depth logger
 BLI .F              3145:   Bottom log interval
 TLI .F               207:   Top log interval
 CS1 .IN            8.625:   Casing size
 CBD1.      8.625" @ 195':   Casing driller 1
 CBL1.F               207:   Casing logger 1
 BS1 .IN            7.875:   Bit size
 BSD1.F              3145:   Depth drilled with bit1
 DFT .            GEL/MUD:   Type fluid in hole
 DFD .                8.5:   Density
 DFV .                 31:   Viscosity
 DFPH.               10.5:   pH
 DFL .                5.6:   Fluid loss
 MSS .             MUDPIT:   Source of sample
 RMS .OHMM           1.63:   Rm
 MST .F                59:   Rm Meas. temp.
 RMF .OHMM           1.48:   Rmf
 MFST.F                59:   Rmf Meas. temp.
 RMC .OHMM           2.45:   Rmc
 MCST.F                59:   Rmc Meas. temp.
 MFSS.               MEAS:   Source Rmf.
 MCSS.               CALC:   Source Rmc.
 RMB .OHMM            .87:   Rm. at BHT
 BHT .F               110:   BHT.
 TCS .HRS            1300:   Time Circ. stopped
 TLAB.HRS            1920:   Time logger at bottom
 MRT .F               110:   Maximum recorded temp.
 LUN .               8035:   Logging unit number
 LUL .               CSPR:   Logging unit location
 ENGI.              CRAIG:   Recorded By
 WITN.         HARRINGTON:   Witnessed by
 ORIG.      2.5" 5" PRINT:   Origin of data
 UWI .     49025105680000:   Unique Well ID
 DICO. A2D TECHNOLOGIES, INC.:   Digitizing Company
~OTHER INFORMATION
~A   DEPT     CALD       RHOB       CORR        SPR        SFL        ILD        ILM         GRD  
# ...
 2920.0000     9.3123     2.5515     0.0662   -46.1291     3.4878     4.1917     3.7886   132.9882
 2920.5000     9.3121     2.5817     0.0864   -46.5208     2.5283     4.1917     3.6855   143.6576
 2921.0000     9.3119     2.5898     0.1266   -46.5199     2.5990     4.1917     3.6855   149.5828
 2921.5000     9.3117     2.5797     0.1508   -46.5189     3.0108     4.3089     3.8589   162.2590
 2922.0000     9.3115     2.5717     0.1588   -46.5180     4.1533     4.4293     4.0777   177.7341
 2922.5000     9.3414     2.5536     0.1649   -46.7134     5.6251     4.6377     4.6377   176.5472
 2923.0000     9.3218     2.4690     0.1096   -46.7125     5.9441     4.9459     5.1785   149.5709
 2923.5000     9.2814     2.4811     0.0582   -46.5153     5.9990     5.4221     5.6771   148.3839
 2924.0000     9.2812     2.5616     0.0623   -46.5143     5.9441     5.7295     5.8897   115.1767
 2924.5000     9.2810     2.5697     0.0683   -45.9246     6.0544     5.9990     6.1103   115.1767
 2925.0000     9.2808     2.5737     0.0663   -45.7274     6.2236     6.1667     6.3976   113.4059
 2925.5000     9.2806     2.5798     0.0603   -45.3341     6.3391     6.2811     6.4567   112.2051
 2926.0000     9.2804     2.5858     0.0643   -45.3332     6.2236     6.3391     6.3976   113.3873
 2926.5000     9.2803     2.5959     0.0683   -45.1360     6.0544     6.3391     6.2811   113.9790
 2927.0000     9.2591     2.5979     0.0724   -45.1352     5.6251     6.3391     6.1667   114.5671
 2927.5000     9.2403     2.5999     0.0784   -44.9380     5.3724     6.3391     6.0544   114.5647
 2928.0000     9.2402     2.6039     0.0804   -44.9371     5.0842     6.2811     5.9990   116.3397
 2928.5000     9.2399     2.6100     0.0865   -45.1325     5.0376     6.2811     5.8358   116.9302
 2929.0000     9.2397     2.6100     0.0885   -45.3278     5.0842     6.1667     5.8358   119.2982
 2929.5000     9.2395     2.6080     0.0885   -45.7194     5.3724     6.1667     5.8358   121.8148
 2930.0000     9.2393     2.5900     0.0845   -46.5034     5.9441     6.1667     5.7824   124.0364
 2930.5000     9.1995     2.5719     0.0765   -46.5025     5.9441     6.1103     5.7295   127.5901
 2931.0000     9.1850     2.5516     0.0503   -46.6978     5.8897     6.0544     5.6771   127.5889
 2931.5000     9.1704     2.5597     0.0473   -46.6969     5.6771     5.9441     5.5737   124.9345
 2932.0000     9.1595     2.5657     0.0453   -46.8922     5.3724     5.4721     5.2278   122.2801
 2932.5000     9.1987     2.5617     0.0413   -46.8913     4.9006     5.0842     4.9006   122.8363
 2933.0000     9.1986     2.5517     0.0393   -46.8903     3.9668     4.5532     4.6377   125.1945
 2933.5000     9.1588     2.5456     0.0372   -46.4970     3.4878     4.2304     4.4293   127.5526
 2934.0000     9.1587     2.5456     0.0373   -46.4961     2.9289     4.1153     4.2304   135.2772
 2934.5000     9.1805     2.5456     0.0453   -45.9065     2.8231     4.0404     3.9668   149.5027
 2935.0000     9.1978     2.5416     0.0796   -45.9056     3.0108     4.0034     3.8236   157.6943
 2935.5000     9.1975     2.5235     0.0937   -45.9047     3.4878     4.0777     3.8236   171.0287
 2936.0000     9.2369     2.5235     0.1148   -45.9038     4.0777     4.4293     4.0536   177.0601
 2936.5000     9.1763     2.4893     0.1108   -45.9029     4.8558     4.6805     4.3888   183.5782
 2937.0000     9.1156     2.4772     0.0832   -45.7058     5.0376     4.9459     4.7237   182.9829
 2937.5000     9.0783     2.4772     0.0557   -44.9202     5.4221     5.4721     5.0376   168.7502
 2938.0000     9.0385     2.4873     0.0323   -44.1346     5.7824     5.7295     5.4221   159.8547
 2938.5000     9.0383     2.5598     0.0474   -44.1339     5.9990     6.1667     5.7295   133.4711
 2939.0000     9.0383     2.5739     0.0665   -43.5445     5.9990     6.3976     6.0544   126.3585
 2939.5000     9.0379     2.5759     0.0665   -43.7398     6.1103     6.5163     6.2236   119.8289
 2940.0000     8.9982     2.5598     0.0585   -43.7390     6.3391     6.7604     6.3976   119.8265
 2940.5000     8.9585     2.5477     0.0545   -43.9342     6.3391     6.7604     6.5765   120.4170
 2941.0000     8.9582     2.5417     0.0464   -44.5218     6.4567     6.9057     6.6985   119.8205
 2941.5000     8.9582     2.5477     0.0464   -44.5209     6.4567     7.0541     6.8228   117.4454
 2942.0000     8.9579     2.5679     0.0565   -44.7162     6.6700     7.2057     6.9494   116.2573
 2942.5000     8.9577     2.5779     0.0666   -45.4999     6.6985     7.4113     7.0136   116.8466
 2943.0000     8.9575     2.5920     0.0706   -46.0874     6.9494     7.4797     7.0784   116.8454
 2943.5000     8.9572     2.5941     0.0686   -46.6747     7.0136     7.4797     7.0784   112.6905
 2944.0000     8.9571     2.5820     0.0606   -46.8699     7.0136     7.4113     7.0784   105.5735
 2944.5000     8.9570     2.5699     0.0565   -47.4573     6.9494     7.3435     7.0784   103.1984
 2945.0000     8.9567     2.5639     0.0566   -47.6525     6.6985     7.2763     7.0784   104.9747
 2945.5000     8.9565     2.5619     0.0606   -47.4557     6.2236     7.3435     7.0784   108.5284
 2946.0000     8.9563     2.5639     0.0566   -48.0431     5.8897     7.4797     7.0784   113.2690
 2946.5000     8.9561     2.5659     0.0526   -47.6499     5.9441     7.6888     7.0784   114.4536
 2947.0000     8.9559     2.5619     0.0485   -47.6489     6.2236     7.7598     7.1437   118.2992
 2947.5000     8.9557     2.5538     0.0485   -47.4519     7.0784     7.8315     7.2763   119.1906
 2948.0000     8.9555     2.5518     0.0526   -47.4510     7.3435     7.9038     7.4797   120.9645
 2948.5000     8.9428     2.5579     0.0546   -46.8617     7.8315     8.1998     7.6185   120.3692
 2949.0000     8.9301     2.5740     0.0586   -46.2725     7.9038     8.2755     7.6185   119.7751
 2949.5000     8.9174     2.5780     0.0607   -45.8791     7.8315     8.1998     7.5488   119.7703
 2950.0000     8.8757     2.5800     0.0587   -45.4865     7.1437     7.9038     7.2763   113.8380
 2950.5000     8.8934     2.5821     0.0546   -44.3587     6.1096     7.4856     6.9980   114.3449
 2951.0000     8.9112     2.5700     0.0506   -44.1208     5.7281     7.2080     6.3961   114.8518
 2951.5000     8.9289     2.5579     0.0466   -43.5363     5.5717     6.8203     5.9419   115.3587
 2952.0000     8.9466     2.5539     0.0466   -43.5399     5.5200     6.2203     5.8330   116.1976
 2952.5000     8.9537     2.5579     0.0506   -43.5436     5.8322     5.1279     5.8322   116.7892
 2953.0000     8.9929     2.5599     0.0567   -43.7433     5.7782     4.5499     5.8317   118.5767
 2953.5000     8.9928     2.5519     0.0607   -43.9431     4.7632     3.9634     5.4679   119.7465
 2954.0000     8.9927     2.5499     0.0688   -43.9468     3.8199     3.2673     4.0739   122.1144
 2954.5000     9.0320     2.5519     0.0728   -44.7349     2.0632     3.1202     3.1202   126.8550
 2955.0000     9.0318     2.5600     0.0869   -45.3271     1.5658     3.1487     2.5487   146.8418
 2955.5000     9.0316     2.5539     0.1598   -46.1154     1.4681     3.2661     2.5251   155.7331
 2956.0000     9.0709     2.5580     0.1887   -46.1191     1.8471     3.2961     2.5716   191.1710
 2956.5000     9.1499     2.5499     0.2471   -46.7121     3.7135     3.5145     2.9786   210.7324
 2957.0000     9.1496     2.4790     0.2330   -46.7159     6.6862     3.8524     3.6793   211.3229
 2957.5000     9.1494     2.3968     0.1786   -46.9158     7.9615     4.3409     4.5033   207.1692
 2958.0000     9.1492     2.4009     0.0346   -46.9196     8.3348     5.1682     5.2160   183.8897
 2958.5000     9.0547     2.4992     0.0386   -47.1196     8.8063     6.8711     5.8234   122.0869
 2959.0000     8.9601     2.5620     0.0467   -47.1234     7.8856     7.6010     6.4422   113.6985
 2959.5000     8.9509     2.5681     0.0548   -47.1287     7.4616     8.0309     7.0612   105.3102
 2960.0000     8.9508     2.5580     0.0528   -47.3264     6.9315     8.0298     7.3053    94.2121
