~VERSION INFORMATION
 VERS.                2.0:   CWLS LOG ASCII STANDARD - VERSION 2.0
 WRAP.                 NO:   ONE LINE PER DEPTH STEP
~WELL INFORMATION
#MNEM.UNIT      DATA TYPE    INFORMATION
#----------   ------------   ------------------------------
 STRT.F          166.0000:   START DEPTH
 STOP.F         3150.5000:   STOP DEPTH
 STEP.F            0.5000:   STEP LENGTH
 NULL.          -999.2500:   NO VALUE
 COMP.    FENIX & SCISSON:   COMPANY
 WELL.  FENIX "AX" #41-34:   WELL
 FLD .              NPR 3:   FIELD
 LOC .      S34 T39N R78W:   LOCATION
 CNTY.            NATRONA:   COUNTY
 STAT.            WYOMING:   STATE
 CTRY. UNITED STATES OF AMERICA:   COUNTRY
 SRVC.       SCHLUMBERGER:   SERVICE COMPANY
 DATE.        05-FEB-1978:   LOGDATE
 API .     49025105680000:   API NUMBER
~CURVE INFORMATION
#MNEM.UNIT       API CODE    CURVE DESCRIPTION
#----------   ------------   ------------------------------
 DEPT.F                  :   
 CALD.IN     45 280 60 00:   CALIPER FROM DENSITY LOG
 RHOB.G/C3   45 350 01 00:   BULK DENSITY
 CORR.G/C3   45 356 01 00:   DENSITY CORRECTION
 SPR .MV     07 010 01 00:   SPONTANEOUS POTENTIAL
 SFL .OHMM   07 220 01 00:   SHALLOW FOCUSED LOG RESISTIVITY
 ILD .OHMM   07 120 46 00:   INDUCTION LOG DEEP RESISTIVITY
 ILM .OHMM   07 120 44 00:   INDUCTION LOG MEDIUM RESISTIVITY
 GRD .GAPI   45 310 01 00:   GAMMA RAY FROM DENSITY LOG
~PARAMETER INFORMATION
#MNEM.UNIT          VALUE    DESCRIPTION
#----------   ------------   ------------------------------
 EKB .F         5074.0000:   Kelly bushing
 EGL .F         5063.0000:   Ground level
 EDF .F            0.0000:   Drilling floor
 TD  .F         3151.0000:   Total depth
 DATE.        05-FEB-1978:   Date logged
 CLNT.            A2DTECH:   Client Code
 SL  . 330' FNL & 2310' FWL:   Surface Location
 PD  .                 GL:   Permanent Datum
 EPD .F              5063:   Elevation Permanent Datum
 LMF .                 KB:   Log Measured From
 DMF .                 KB:   Drilling Measured From
 DAPD.F                11:   Feet Above Permanent Datum
 DD  .F              3145:   Depth driller
 DL  .F              3151:   Depth logger
 BLI .F              3145:   Bottom log interval
 TLI .F               207:   Top log interval
 CS1 .IN            8.625:   Casing size
 CBD1.      8.625" @ 195':   Casing driller 1
 CBL1.F               207:   Casing logger 1
 BS1 .IN            7.875:   Bit size
 BSD1.F              3145:   Depth drilled with bit1
 DFT .            GEL/MUD:   Type fluid in hole
 DFD .                8.5:   Density
 DFV .                 31:   Viscosity
 DFPH.               10.5:   pH
 DFL .                5.6:   Fluid loss
 MSS .             MUDPIT:   Source of sample
 RMS .OHMM           1.63:   Rm
 MST .F                59:   Rm Meas. temp.
 RMF .OHMM           1.48:   Rmf
 MFST.F                59:   Rmf Meas. temp.
 RMC .OHMM           2.45:   Rmc
 MCST.F                59:   Rmc Meas. temp.
 MFSS.               MEAS:   Source Rmf.
 MCSS.               CALC:   Source Rmc.
 RMB .OHMM            .87:   Rm. at BHT
 BHT .F               110:   BHT.
 TCS .HRS            1300:   Time Circ. stopped
 TLAB.HRS            1920:   Time logger at bottom
 MRT .F               110:   Maximum recorded temp.
 LUN .               8035:   Logging unit number
 LUL .               CSPR:   Logging unit location
 ENGI.              CRAIG:   Recorded By
 WITN.         HARRINGTON:   Witnessed by
 ORIG.      2.5" 5" PRINT:   Origin of data
 UWI .     49025105680000:   Unique Well ID
 DICO. A2D TECHNOLOGIES, INC.:   Digitizing Company
~OTHER INFORMATION
~A   DEPT     CALD       RHOB       CORR        SPR        SFL        ILD        ILM         GRD  
# ...
  611.5000    10.4413     2.5504     0.0716   -64.3011     7.3483    10.1396     8.8330    98.1939
  612.0000    10.4416     2.5544     0.0776   -64.1074     7.2135    10.1382     8.9956    97.0105
  612.5000    10.4813     2.5544     0.0766   -63.5210     7.5520    10.1369     8.8305    95.8283
  613.0000    10.3819     2.5524     0.0715   -63.5236     7.9064    10.1356     8.9114    96.4235
  613.5000    10.3718     2.5341     0.0605   -63.3300     8.0522    10.0415     8.9921    95.8342
  614.0000    10.3633     2.5158     0.0504   -63.1363     8.1255    10.2266     9.0740    96.4295
  614.5000    10.3635     2.4975     0.0363   -62.9426     8.1245    10.2252     8.9902    97.6189
  615.0000    10.3636     2.4879     0.0393   -62.3563     8.0491    10.5091     9.0717    98.2141
  615.5000    10.3425     2.5158     0.0433   -61.9664     8.1222    10.2220     9.1543    97.0319
  616.0000    10.3246     2.5343     0.0595   -61.5764     7.8280    10.2217     8.9863    97.0343
  616.5000    10.3248     2.5322     0.0635   -60.9901     7.5443    10.2199     9.0681    97.0379
  617.0000    10.3250     2.5302     0.0514   -60.4034     7.5433    10.2185     8.9839    98.2260
  617.5000    10.3251     2.5210     0.0454   -60.4066     7.5427    10.1236     8.9826    96.4509
  618.0000    10.3254     2.5117     0.0292   -60.4088     7.7523    10.1223     8.8994    96.4533
  618.5000    10.3256     2.5025     0.0277   -60.2158     7.8230     9.9365     8.8982    95.8640
  619.0000    10.3258     2.4859     0.0262   -60.2185     7.7503     9.7539     8.9793    97.6450
  619.5000    10.3259     2.4859     0.0252   -60.4176     7.4694     9.4874     8.5744    99.4273
  620.0000    10.2471     2.4939     0.0353   -60.6161     7.1328     8.8947     8.2636   100.6155
  620.5000    10.3263     2.5000     0.0449   -60.8145     6.8114     8.5721     8.1119    97.0617
  621.0000    10.3660     2.5000     0.0433   -61.4072     6.0431     8.5712     7.3978    95.8783
  621.5000    10.3926     2.5000     0.0373   -62.1951     5.3122     8.5699     7.1960    97.6605
  622.0000    10.4456     2.5000     0.0333   -62.3941     5.0728     8.4904     6.9993   100.0345
  622.5000    10.4852     2.5020     0.0383   -63.3781     5.5608     8.4893     7.1283   101.8168
  623.0000    10.5248     2.5161     0.1154   -63.7734     6.1521     8.5666     7.3267   100.6334
  623.5000    10.7510     2.5242     0.1724   -64.1686     6.9966     8.6455     7.3266    97.6724
  624.0000    11.0392     2.4577     0.2198   -64.3675     7.3925     8.9676     8.0308    92.9316
  624.5000    11.4345     2.3506     0.2490   -64.1739     7.5984     9.8301     8.2398    89.3778
  625.0000    11.8729     2.1811     0.2117   -64.1765     7.8099    10.0112     8.4543    90.5660
  625.5000    12.0674     2.0806     0.0554   -64.1792     7.9538    10.4809     8.7197    91.1624
  626.0000    11.4312     2.0826     0.0252   -64.1819     8.0263    10.8722     9.0455    91.1648
  626.5000    10.4374     2.3057     0.0091   -64.1845     8.3259    11.1748     9.7343    91.1684
  627.0000    10.4376     2.4476     0.0272   -63.7947     8.7973    11.3817     9.9075    91.1708
  627.5000    10.4378     2.4862     0.0463   -63.6011     8.8774    11.5905    10.0969    92.3601
  628.0000    10.4084     2.5101     0.0655   -63.4076     9.0410    11.6960    10.0961    92.9554
  628.5000    10.4085     2.5101     0.0562   -63.2140     9.1234    11.8025    10.2813    94.1448
  629.0000    10.4270     2.5080     0.0514   -62.8242     9.0387    11.9099    10.3754    95.3330
  629.5000    10.4454     2.5060     0.0454   -62.2382     8.9548    11.9090    10.3908    96.5212
  630.0000    10.4487     2.5080     0.0454   -61.8485     8.9536    11.9068    10.4062    99.4892
  630.5000    10.4094     2.5121     0.0494   -61.2626     8.9525    12.0151    10.4217   106.6088
  631.0000    10.4095     2.5141     0.0494   -61.0691     8.9513    12.0135    10.4371   106.0171
  631.5000    10.3496     2.5201     0.0653   -60.8756     8.9501    12.0119    10.4526   106.0195
  632.0000    10.2914     2.5262     0.0796   -60.4864     9.0316    12.0104    10.5600   104.8372
  632.5000    10.2520     2.5343     0.0796   -60.4881     9.1139    12.1197    10.6255   103.6538
  633.0000    10.2523     2.5383     0.0815   -60.4897     9.1969    12.0612    10.6915   102.4716
  633.5000    10.2524     2.5464     0.0834   -61.0827     9.2806    12.0056    10.7514   101.8811
  634.0000    10.2527     2.5484     0.0837   -61.2816     9.1945    12.0040    10.7511   101.2894
  634.5000    10.2529     2.5444     0.0776   -61.6767     9.0258    11.8925    10.7489    99.7032
  635.0000    10.2531     2.5423     0.0715   -62.0717     8.9420    11.8910    10.0773    97.7403
  635.5000    10.2532     2.5403     0.0654   -62.4668     8.9408    11.7812    10.0760    96.5569
  636.0000    10.2535     2.5363     0.0595   -62.6656     8.8579    11.5902    10.0746    96.5604
  636.5000    10.2536     2.5302     0.0575   -62.8645     9.0211    11.4570     9.9811    96.5628
  637.0000    10.2538     2.5262     0.0635   -63.0634     8.5356    11.3507     9.9798    97.7522
  637.5000    10.2540     2.5343     0.0655   -62.8699     8.4564    11.1424     9.9785    97.1617
  638.0000    10.2543     2.5363     0.0716   -63.0687     8.5334    11.1409     9.9772    96.5724
  638.5000    10.2544     2.5343     0.0736   -63.4637     8.3768    11.1406     9.9751    97.1676
  639.0000    10.2546     2.5343     0.0716   -63.2702     8.1479    11.0361     9.7883    95.9854
  639.5000    10.2548     2.5282     0.0655   -63.4691     8.1469    10.9336     9.5245    96.5807
  640.0000    10.2550     2.5262     0.0514   -63.2756     8.1458    10.9322     9.5240    98.3630
  640.5000    10.2551     2.5222     0.0433   -63.2783     8.1448    11.0317     9.5227   100.7369
  641.0000    10.2554     2.5181     0.0393   -63.0848     8.1437    11.0302     9.5208   101.3334
  641.5000    10.2555     2.5060     0.0353   -62.8913     8.1427    11.0288     9.5203   101.3370
  642.0000    10.2179     2.4939     0.0353   -62.6979     8.2168    11.0273     9.4326   100.7465
  642.5000    10.1770     2.4879     0.0393   -62.5045     8.2157    10.9250     9.0075    99.5630
  643.0000    10.1770     2.4839     0.0433   -62.3110     8.5224    11.0244     9.6044    97.7879
  643.5000    10.1533     2.4758     0.0433   -62.1176     8.5212    11.0230     9.9628    97.1974
  644.0000    10.1380     2.4818     0.0373   -62.1203     8.5204    11.1233     9.8704    96.0152
  644.5000    10.1382     2.4939     0.0333   -62.3191     8.5190    11.1230     9.7788    95.4247
  645.0000    10.0989     2.5000     0.0353   -62.3218     8.5179    11.2231    10.0509    94.2412
  645.5000    10.0991     2.5141     0.0454   -62.5206     8.5168    11.2216     9.8665    93.6519
  646.0000    10.1388     2.5222     0.0514   -62.7194     8.5160    11.2201     9.8652    93.6555
  646.5000    10.1389     2.5222     0.0635   -62.9182     8.2073    11.2186     9.9550    93.6579
  647.0000    10.1022     2.5161     0.0635   -63.3130     8.2062    11.1151     9.8626    93.6614
  647.5000    10.0999     2.5060     0.0575   -63.5118     8.1301    11.1804     9.7711    94.2567
  648.0000    10.1396     2.5040     0.0514   -63.7105     8.1290    11.2142    10.0430    96.0390
  648.5000    10.1003     2.5020     0.0474   -63.9093     8.2030    11.3162     9.8588   101.3775
  649.0000    10.1005     2.4960     0.0433   -64.3041     8.4313    11.3147     9.8575   104.9372
  649.5000    10.1472     2.4859     0.0333   -64.1107     8.7461    11.4177     9.9472   105.5349
  650.0000    10.1799     2.4738     0.0292   -64.1133     8.8254    11.4162    10.0377   104.9432
  650.5000    10.1801     2.4718     0.0252   -63.5665     8.8250    11.6000     9.9501   104.9468
  651.0000    10.2198     2.4819     0.0284   -63.5302     8.8243    11.7334    10.0361   104.3562
  651.5000    10.2200     2.4798     0.0317   -63.3366     8.9051    11.7324    10.0353   103.7669
