~VERSION INFORMATION
 VERS.                2.0:   CWLS LOG ASCII STANDARD - VERSION 2.0
 WRAP.                 NO:   ONE LINE PER DEPTH STEP
~WELL INFORMATION
#MNEM.UNIT      DATA TYPE    INFORMATION
#----------   ------------   ------------------------------
 STRT.F          166.0000:   START DEPTH
 STOP.F         3150.5000:   STOP DEPTH
 STEP.F            0.5000:   STEP LENGTH
 NULL.          -999.2500:   NO VALUE
 COMP.    FENIX & SCISSON:   COMPANY
 WELL.  FENIX "AX" #41-34:   WELL
 FLD .              NPR 3:   FIELD
 LOC .      S34 T39N R78W:   LOCATION
 CNTY.            NATRONA:   COUNTY
 STAT.            WYOMING:   STATE
 CTRY. UNITED STATES OF AMERICA:   COUNTRY
 SRVC.       SCHLUMBERGER:   SERVICE COMPANY
 DATE.        05-FEB-1978:   LOGDATE
 API .     49025105680000:   API NUMBER
~CURVE INFORMATION
#MNEM.UNIT       API CODE    CURVE DESCRIPTION
#----------   ------------   ------------------------------
 DEPT.F                  :   
 CALD.IN     45 280 60 00:   CALIPER FROM DENSITY LOG
 RHOB.G/C3   45 350 01 00:   BULK DENSITY
 CORR.G/C3   45 356 01 00:   DENSITY CORRECTION
 SPR .MV     07 010 01 00:   SPONTANEOUS POTENTIAL
 SFL .OHMM   07 220 01 00:   SHALLOW FOCUSED LOG RESISTIVITY
 ILD .OHMM   07 120 46 00:   INDUCTION LOG DEEP RESISTIVITY
 ILM .OHMM   07 120 44 00:   INDUCTION LOG MEDIUM RESISTIVITY
 GRD .GAPI   45 310 01 00:   GAMMA RAY FROM DENSITY LOG
~PARAMETER INFORMATION
#MNEM.UNIT          VALUE    DESCRIPTION
#----------   ------------   ------------------------------
 EKB .F         5074.0000:   Kelly bushing
 EGL .F         5063.0000:   Ground level
 EDF .F            0.0000:   Drilling floor
 TD  .F         3151.0000:   Total depth
 DATE.        05-FEB-1978:   Date logged
 CLNT.            A2DTECH:   Client Code
 SL  . 330' FNL & 2310' FWL:   Surface Location
 PD  .                 GL:   Permanent Datum
 EPD .F              5063:   Elevation Permanent Datum
 LMF .                 KB:   Log Measured From
 DMF .                 KB:   Drilling Measured From
 DAPD.F                11:   Feet Above Permanent Datum
 DD  .F              3145:   Depth driller
 DL  .F              3151:   Depth logger
 BLI .F              3145:   Bottom log interval
 TLI .F               207:   Top log interval
 CS1 .IN            8.625:   Casing size
 CBD1.      8.625" @ 195':   Casing driller 1
 CBL1.F               207:   Casing logger 1
 BS1 .IN            7.875:   Bit size
 BSD1.F              3145:   Depth drilled with bit1
 DFT .            GEL/MUD:   Type fluid in hole
 DFD .                8.5:   Density
 DFV .                 31:   Viscosity
 DFPH.               10.5:   pH
 DFL .                5.6:   Fluid loss
 MSS .             MUDPIT:   Source of sample
 RMS .OHMM           1.63:   Rm
 MST .F                59:   Rm Meas. temp.
 RMF .OHMM           1.48:   Rmf
 MFST.F                59:   Rmf Meas. temp.
 RMC .OHMM           2.45:   Rmc
 MCST.F                59:   Rmc Meas. temp.
 MFSS.               MEAS:   Source Rmf.
 MCSS.               CALC:   Source Rmc.
 RMB .OHMM            .87:   Rm. at BHT
 BHT .F               110:   BHT.
 TCS .HRS            1300:   Time Circ. stopped
 TLAB.HRS            1920:   Time logger at bottom
 MRT .F               110:   Maximum recorded temp.
 LUN .               8035:   Logging unit number
 LUL .               CSPR:   Logging unit location
 ENGI.              CRAIG:   Recorded By
 WITN.         HARRINGTON:   Witnessed by
 ORIG.      2.5" 5" PRINT:   Origin of data
 UWI .     49025105680000:   Unique Well ID
 DICO. A2D TECHNOLOGIES, INC.:   Digitizing Company
~OTHER INFORMATION
~A   DEPT     CALD       RHOB       CORR        SPR        SFL        ILD        ILM         GRD  
# ...
 1583.5000     9.5658     2.6129     0.0712   -57.9375     8.4292    10.1318     9.0729   106.8724
 1584.0000     9.5655     2.6128     0.0611   -58.1382     8.4278    10.1301     8.9883   103.2917
 1584.5000     9.5645     2.6027     0.0470   -58.1422     8.4264     9.9438     9.1540   101.4994
 1585.0000     9.5634     2.5745     0.0449   -58.1461     8.6608    10.0341     9.1525   100.5978
 1585.5000     9.5629     2.5765     0.0569   -58.1500     8.7394    10.0324     8.9016   100.5899
 1586.0000     9.5226     2.5785     0.0569   -58.1539     8.4225    10.0308     9.0654   102.3625
 1586.5000     9.5614     2.5764     0.0528   -57.9610     8.3440     9.9373     9.0640   102.3546
 1587.0000     9.5608     2.5623     0.0468   -57.9649     8.3427    10.0275     8.9795   102.0428
 1587.5000     9.5599     2.5502     0.0246   -57.9688     8.1140    10.0259     8.9780   100.8451
 1588.0000     9.5594     2.5340     0.0205   -57.9728     8.1129     9.9324     8.9765    94.8841
 1588.5000     9.5588     2.5461     0.0285   -57.5830     8.1113     9.9308     8.9751    95.4710
 1589.0000     9.5968     2.5481     0.0325   -57.5869     8.1100     9.9292     8.9736    98.4336
 1589.5000     9.5967     2.5440     0.0365   -56.8035     8.1086     9.9275     8.8899   100.2105
 1590.0000     9.5962     2.5480     0.0365   -56.6106     8.0330     9.9259     8.9706   101.9835
 1590.5000     9.6149     2.5520     0.0405   -56.6146     8.1059     9.9243     8.9692   102.5705
 1591.0000     9.6337     2.5660     0.0424   -56.6185     8.1046    10.0144     8.9677   103.7526
 1591.5000     9.6335     2.5741     0.0484   -56.6224     8.1782    10.0127     8.9662   105.5257
 1592.0000     9.6329     2.5841     0.0544   -56.6263     8.2516    10.1036     8.9647   107.3028
 1592.5000     9.6321     2.5921     0.0624   -56.8271     8.2513    10.1020     9.2138   102.5310
 1593.0000     9.6313     2.5900     0.0614   -57.0278     8.7178    10.1003     9.2126   100.3034
 1593.5000     9.6305     2.5739     0.0553   -56.8349     9.0431    10.0062     9.3824    98.3670
 1594.0000     9.6298     2.5578     0.0493   -57.4309     9.3806    10.2842     9.4673   100.4192
 1594.5000     9.6298     2.5698     0.0412   -57.6300     8.7135    10.2828     9.4657   101.0063
 1595.0000     9.6287     2.5637     0.0351   -58.4252     8.2440    10.2811     9.2916   100.9944
 1595.5000     9.6277     2.5536     0.0290   -59.0951     8.5516    10.2795     9.2901   100.9865
 1596.0000     9.6272     2.5476     0.0330   -59.4172     8.7092    10.2778     9.2035    99.7844
 1596.5000     9.6263     2.5334     0.0370   -59.4211     8.8698    10.2761     9.2023    99.1853
 1597.0000     9.6255     2.5133     0.0219   -59.4251     8.9500    10.2744     9.2005    97.2360
 1597.5000     9.6248     2.5133     0.0158   -59.2321     8.9488    10.2727     9.1990    95.2866
 1598.0000     9.5846     2.5253     0.0137   -58.6456     8.8648    10.3660     9.1978    97.9592
 1598.5000     9.6234     2.5474     0.0318   -58.4527     8.7018    10.3643     9.1120    98.5503
 1599.0000     9.6228     2.5574     0.0418   -58.6502     8.7808    10.3626     9.1099    99.7247
 1599.5000     9.6220     2.5534     0.0398   -58.6542     8.9424    10.3609     9.1084    99.1216
 1600.0000     9.5420     2.5533     0.0377   -58.2644     8.9409    10.2643     9.1069    96.1337
 1600.5000     9.6054     2.5475     0.0332   -57.8717     8.5384    10.1723     9.1054    95.7428
 1601.0000     9.6208     2.5452     0.0297   -57.4788     8.2297    10.1693     9.1062    95.5322
 1601.5000     9.6205     2.5432     0.0276   -57.2828     8.1540    10.2630     9.1059    95.5298
 1602.0000     9.6204     2.5271     0.0256   -56.8900     8.0791    10.2625     9.1055    96.7167
 1602.5000     9.6203     2.5210     0.0216   -56.1035     8.1534    10.1681     9.1052    96.7155
 1603.0000     9.6198     2.5190     0.0296   -56.1044     8.0045    10.0746     9.1047    98.4976
 1603.5000     9.6197     2.5351     0.0356   -55.5148     7.8583     9.9819     8.8567    99.0904
 1604.0000     9.6196     2.5753     0.0416   -55.5156     7.8580     9.9817     8.9382   100.2772
 1604.5000     9.6195     2.6055     0.0638   -55.1229     8.0036     9.9812     8.9378   102.0605
 1605.0000     9.6265     2.5894     0.0859   -55.3206     8.0773     9.9808     8.8557   105.6283
 1605.5000     9.6334     2.5693     0.0758   -55.5182     8.1516     9.9804     8.9372   107.4103
 1606.0000     9.6404     2.5390     0.0557   -55.7159     8.2267     9.7979     9.0194   105.6223
 1606.5000     9.6473     2.5370     0.0466   -56.1103     8.1510     9.7976     8.8547   103.2390
 1607.0000     9.6543     2.5531     0.0486   -56.5048     8.0021     9.7973     8.9362    99.0688
 1607.5000     9.6579     2.5591     0.0526   -57.0960     7.8559     9.8874     9.0184    99.0652
 1608.0000     9.5783     2.5672     0.0627   -57.4904     8.0015    10.0706     8.8537   104.4199
 1608.5000     9.5782     2.5611     0.0748   -58.4751     8.1498     9.7961     8.7723   105.6067
 1609.0000     9.5779     2.5450     0.0466   -58.8693     8.7719     9.7958     8.7720   105.6043
 1609.5000     9.5777     2.5309     0.0244   -59.4606     8.8527     9.6168     8.9345   103.8151
 1610.0000     9.5775     2.5309     0.0325   -59.4614     8.3769     9.6167     8.9339    98.4556
 1610.5000     9.5773     2.5671     0.0375   -59.4622     8.0000     9.6164     8.8519    98.4532
 1611.0000     9.5771     2.5711     0.0435   -59.2662     7.9264     9.5832     8.8517    99.9784
 1611.5000     9.6166     2.5469     0.0475   -59.4639     7.7817     9.5502     9.0157   101.4222
 1612.0000     9.6165     2.5469     0.0354   -59.2680     7.9259     9.5172     8.7698    99.6341
 1612.5000     9.6162     2.5550     0.0354   -58.8751     7.9989     9.4844     8.7500    97.8460
 1613.0000     9.6160     2.5731     0.0515   -58.6793     8.2223     9.4387     8.7303    95.7121
 1613.5000     9.5761     2.5670     0.0515   -58.2865     8.1468     9.4387     8.7106    95.4604
 1614.0000     9.5759     2.5569     0.0434   -57.6971     8.0719     9.4169     8.6882   100.8126
 1614.5000     9.5758     2.5609     0.0354   -56.9110     7.8519     9.3952     8.6880   101.4066
 1615.0000     9.5919     2.5750     0.0494   -56.5183     7.8516     9.3736     8.6081   103.1875
 1615.5000     9.6081     2.5790     0.0595   -56.3225     7.7795     9.3520     8.6078   104.3526
 1616.0000     9.6148     2.5689     0.0635   -55.7331     7.8511     9.3304     8.6075   105.5624
 1616.5000     9.6147     2.5609     0.0554   -55.7340     7.8508     9.3090     8.6070   105.5600
 1617.0000     9.6226     2.5528     0.0433   -55.7349     7.9962     9.2875     8.5888   104.9636
 1617.5000     9.6306     2.5568     0.0433   -55.7357     8.2197     9.2636     8.5705   101.3208
 1618.0000     9.6385     2.5568     0.0473   -55.7366     8.1439     9.2632     8.5524    98.4077
 1618.5000     9.6464     2.5628     0.0534   -55.3444     7.9222     9.2629     8.5342    99.0018
 1619.0000     9.6533     2.5608     0.0594   -55.7381     7.9219     9.2625     8.5161   100.7377
 1619.5000     9.6531     2.5648     0.0534   -56.1326     7.9216     9.2622     8.4981   102.4737
 1620.0000     9.6530     2.5708     0.0473   -56.7237     7.8487     9.2618     8.4801   101.9671
 1620.5000     9.6925     2.5688     0.0453   -57.1179     7.8484     9.2615     8.4621   102.5599
 1621.0000     9.7298     2.5668     0.0453   -57.7088     7.8481     9.2612     8.4474   102.5563
 1621.5000     9.7672     2.5688     0.0453   -57.7096     7.8479     9.2608     8.5254   102.5539
 1622.0000     9.7711     2.5728     0.0472   -57.7104     8.1417     9.2604     8.5248   104.3360
 1622.5000     9.7710     2.5889     0.0553   -57.7112     8.0668     9.2601     8.6032   106.1193
 1623.0000     9.7709     2.5949     0.0593   -58.1054     7.8470     9.2600     8.5787   108.4966
 1623.5000     9.7910     2.5848     0.0492   -58.1062     7.7036     9.2594     8.5543   108.7894
