~VERSION INFORMATION
 VERS.                2.0:   CWLS LOG ASCII STANDARD - VERSION 2.0
 WRAP.                 NO:   ONE LINE PER DEPTH STEP
~WELL INFORMATION
#MNEM.UNIT      DATA TYPE    INFORMATION
#----------   ------------   ------------------------------
 STRT.F          166.0000:   START DEPTH
 STOP.F         3150.5000:   STOP DEPTH
 STEP.F            0.5000:   STEP LENGTH
 NULL.          -999.2500:   NO VALUE
 COMP.    FENIX & SCISSON:   COMPANY
 WELL.  FENIX "AX" #41-34:   WELL
 FLD .              NPR 3:   FIELD
 LOC .      S34 T39N R78W:   LOCATION
 CNTY.            NATRONA:   COUNTY
 STAT.            WYOMING:   STATE
 CTRY. UNITED STATES OF AMERICA:   COUNTRY
 SRVC.       SCHLUMBERGER:   SERVICE COMPANY
 DATE.        05-FEB-1978:   LOGDATE
 API .     49025105680000:   API NUMBER
~CURVE INFORMATION
#MNEM.UNIT       API CODE    CURVE DESCRIPTION
#----------   ------------   ------------------------------
 DEPT.F                  :   
 CALD.IN     45 280 60 00:   CALIPER FROM DENSITY LOG
 RHOB.G/C3   45 350 01 00:   BULK DENSITY
 CORR.G/C3   45 356 01 00:   DENSITY CORRECTION
 SPR .MV     07 010 01 00:   SPONTANEOUS POTENTIAL
 SFL .OHMM   07 220 01 00:   SHALLOW FOCUSED LOG RESISTIVITY
 ILD .OHMM   07 120 46 00:   INDUCTION LOG DEEP RESISTIVITY
 ILM .OHMM   07 120 44 00:   INDUCTION LOG MEDIUM RESISTIVITY
 GRD .GAPI   45 310 01 00:   GAMMA RAY FROM DENSITY LOG
~PARAMETER INFORMATION
#MNEM.UNIT          VALUE    DESCRIPTION
#----------   ------------   ------------------------------
 EKB .F         5074.0000:   Kelly bushing
 EGL .F         5063.0000:   Ground level
 EDF .F            0.0000:   Drilling floor
 TD  .F         3151.0000:   Total depth
 DATE.        05-FEB-1978:   Date logged
 CLNT.            A2DTECH:   Client Code
 SL  . 330' FNL & 2310' FWL:   Surface Location
 PD  .                 GL:   Permanent Datum
 EPD .F              5063:   Elevation Permanent Datum
 LMF .                 KB:   Log Measured From
 DMF .                 KB:   Drilling Measured From
 DAPD.F                11:   Feet Above Permanent Datum
 DD  .F              3145:   Depth driller
 DL  .F              3151:   Depth logger
 BLI .F              3145:   Bottom log interval
 TLI .F               207:   Top log interval
 CS1 .IN            8.625:   Casing size
 CBD1.      8.625" @ 195':   Casing driller 1
 CBL1.F               207:   Casing logger 1
 BS1 .IN            7.875:   Bit size
 BSD1.F              3145:   Depth drilled with bit1
 DFT .            GEL/MUD:   Type fluid in hole
 DFD .                8.5:   Density
 DFV .                 31:   Viscosity
 DFPH.               10.5:   pH
 DFL .                5.6:   Fluid loss
 MSS .             MUDPIT:   Source of sample
 RMS .OHMM           1.63:   Rm
 MST .F                59:   Rm Meas. temp.
 RMF .OHMM           1.48:   Rmf
 MFST.F                59:   Rmf Meas. temp.
 RMC .OHMM           2.45:   Rmc
 MCST.F                59:   Rmc Meas. temp.
 MFSS.               MEAS:   Source Rmf.
 MCSS.               CALC:   Source Rmc.
 RMB .OHMM            .87:   Rm. at BHT
 BHT .F               110:   BHT.
 TCS .HRS            1300:   Time Circ. stopped
 TLAB.HRS            1920:   Time logger at bottom
 MRT .F               110:   Maximum recorded temp.
 LUN .               8035:   Logging unit number
 LUL .               CSPR:   Logging unit location
 ENGI.              CRAIG:   Recorded By
 WITN.         HARRINGTON:   Witnessed by
 ORIG.      2.5" 5" PRINT:   Origin of data
 UWI .     49025105680000:   Unique Well ID
 DICO. A2D TECHNOLOGIES, INC.:   Digitizing Company
~OTHER INFORMATION
~A   DEPT     CALD       RHOB       CORR        SPR        SFL        ILD        ILM         GRD  
# ...
 1745.5000     9.6031     2.5933     0.1062   -57.8457     7.2745     8.4563     7.7576   113.1248
 1746.0000     9.6029     2.5913     0.1001   -58.0453     7.4755     8.4850     7.7561   114.9081
 1746.5000     9.5928     2.5912     0.0920   -58.0481     7.4750     8.5138     7.7551   120.2615
 1747.0000     9.5827     2.5973     0.0779   -57.8540     7.4738     8.5427     7.8248   120.8543
 1747.5000     9.5726     2.5892     0.0739   -57.8568     7.4728     8.5717     7.8241   120.8520
 1748.0000     9.5625     2.5610     0.0537   -57.4670     7.4030     8.6008     7.7993   119.0627
 1748.5000     9.5624     2.5610     0.0355   -57.4687     7.1347     8.6300     7.7745   112.5117
 1749.0000     9.5619     2.5650     0.0335   -57.2747     7.1336     8.6593     7.8921   111.9140
 1749.5000     9.5618     2.5569     0.0395   -56.6875     7.4676     8.6887     7.9442   113.1009
 1750.0000     9.5617     2.5388     0.0375   -56.2950     7.8173     8.7278     7.9966   114.2890
 1750.5000     9.5614     2.5327     0.0355   -56.2984     7.8161     8.6801     8.0493   120.2376
 1751.0000     9.6009     2.5468     0.0496   -56.3012     7.6727     8.6326     8.1070   120.2352
 1751.5000     9.6007     2.5589     0.0556   -55.7135     7.4627     8.5854     8.1059   119.6376
 1752.0000     9.6005     2.5729     0.0717   -54.7323     7.3256     8.5384     8.0305   117.8483
 1752.5000     9.6003     2.5729     0.0656   -54.3415     7.1911     8.4917     8.0284   116.6555
 1753.0000     9.6001     2.5689     0.0575   -54.1475     7.1241     8.4452     8.0281   117.1644
 1753.5000     9.5739     2.5668     0.0495   -54.1504     7.1229     8.4038     7.9531   117.8388
 1754.0000     9.5608     2.5729     0.0454   -54.1533     7.1875     8.4027     7.9518   117.8364
 1754.5000     9.5599     2.5849     0.0543   -54.3529     7.3198     8.5571     7.9505   117.8340
 1755.0000     9.5597     2.5970     0.0655   -54.5526     7.7331     8.5969     7.8765   119.6161
 1755.5000     9.5594     2.6010     0.0675   -54.7523     7.4531     8.6329     7.8752   119.6125
 1756.0000     9.5593     2.5970     0.0675   -55.1487     7.4516     8.7112     8.2435   119.6101
 1756.5000     9.5592     2.5889     0.0675   -55.5451     7.6586     8.9529     8.2432   117.2256
 1757.0000     9.5799     2.5889     0.0614   -55.9415     7.9439     8.9514     8.3173   116.7213
 1757.5000     9.5983     2.5808     0.0554   -56.5352     8.1646     8.9500     8.3927   116.6244
 1758.0000     9.5585     2.5727     0.0473   -56.5380     8.1632     8.9486     8.3913   116.0268
 1758.5000     9.5582     2.5566     0.0412   -56.9344     7.9400     8.9476     8.3900   114.8328
 1759.0000     9.5582     2.5506     0.0372   -56.9372     7.9387     8.9458     8.3880   112.7945
 1759.5000     9.5579     2.5445     0.0372   -57.1368     7.8648     8.9446     8.2345   112.4483
 1760.0000     9.5576     2.5465     0.0392   -57.1396     7.8635     8.9430     8.3083   108.8022
 1760.5000     9.5575     2.5566     0.0432   -57.1424     8.0080     8.9413     8.3077   110.0590
 1761.0000     9.5573     2.5606     0.0492   -57.1452     7.8601     8.9399     8.2307   113.9465
 1761.5000     9.5570     2.5565     0.0512   -57.1480     7.8596     8.9387     8.2291   117.8339
 1762.0000     9.5569     2.5505     0.0471   -57.1508     7.8583     8.9378     8.2272   119.5743
 1762.5000     9.5568     2.5484     0.0391   -56.9568     7.7851     8.9358     8.1514   119.5719
 1763.0000     9.5565     2.5565     0.0411   -56.9597     7.7836     8.9230     8.1836   118.3778
 1763.5000     9.5562     2.5685     0.0491   -56.5690     7.9266     8.9102     8.2160   118.3754
 1764.0000     9.5561     2.5625     0.0471   -56.5718     7.9261     8.8974     8.2485   118.9671
 1764.5000     9.5162     2.5544     0.0420   -56.1812     7.7800     8.8847     8.2960   118.9647
 1765.0000     9.5160     2.5484     0.0440   -55.7900     7.8505     8.8720     8.2952   119.5563
 1765.5000     9.5159     2.5544     0.0480   -55.3994     7.8492     8.8593     8.2946   120.7444
 1766.0000     9.5156     2.5624     0.0581   -55.4023     7.9203     8.8430     8.2935   122.5265
 1766.5000     9.5154     2.5745     0.0601   -55.4051     8.0659     8.9240     8.2916   124.3098
 1767.0000     9.5152     2.5684     0.0439   -55.4079     7.9169     9.0046     8.2141   120.7348
 1767.5000     9.5150     2.5543     0.0359   -55.4108     7.9164     8.8392     8.2133   118.3515
 1768.0000     9.5148     2.5483     0.0288   -55.4136     7.9151     8.8378     8.2114   116.5623
 1768.5000     9.5147     2.5503     0.0288   -55.8104     7.7697     8.7555     8.0608   115.9647
 1769.0000     9.5002     2.5543     0.0348   -56.0099     7.4194     8.7540     7.9855   118.0513
 1769.5000     9.4856     2.5543     0.0408   -56.2094     7.2830     8.7535     7.8388   119.5300
 1770.0000     9.4743     2.5542     0.0388   -56.2122     7.2818     8.9957     7.9829   120.7169
 1770.5000     9.5138     2.5522     0.0388   -56.4117     7.3478     8.9943     7.9816   121.3097
 1771.0000     9.5137     2.5522     0.0368   -56.6112     7.4829     8.7486     7.9803   122.6272
 1771.5000     9.5135     2.5522     0.0388   -56.6140     7.6207     8.6668     7.9789   123.0894
 1772.0000     9.5132     2.5542     0.0468   -56.6168     7.6194     8.5861     7.9776   121.3002
 1772.5000     9.5130     2.5642     0.0548   -56.4230     7.6179     8.5853     7.9763   119.5121
 1773.0000     9.5128     2.5743     0.0588   -56.4258     7.6169     8.7428     7.9750   119.5085
 1773.5000     9.5127     2.5743     0.0608   -56.2320     7.6154     8.7411     7.9737   120.1014
 1774.0000     9.5124     2.5602     0.0527   -56.4314     7.5445     8.7396     7.9724   120.6930
 1774.5000     9.4727     2.5501     0.0447   -56.2376     7.2710     8.7382     7.9710   121.8810
 1775.0000     9.5122     2.5501     0.0386   -56.4371     7.6116     8.7368     7.8966   120.6870
 1775.5000     9.5119     2.5641     0.0406   -56.2433     7.6103     8.7356     7.8953   120.0894
 1776.0000     9.5116     2.5682     0.0466   -56.2461     7.6788     8.6981     7.8940   117.1097
 1776.5000     9.5115     2.5742     0.0506   -55.2658     7.6918     8.6520     7.9655   115.9181
 1777.0000     9.5114     2.5762     0.0526   -55.0714     7.7047     8.7316     7.9642   114.1288
 1777.5000     9.4714     2.5782     0.0526   -54.8776     7.7177     8.7307     7.9631   115.2792
 1778.0000     9.4711     2.5741     0.0526   -55.0771     7.7307     8.7290     7.9759   116.5025
 1778.5000     9.4710     2.5620     0.0486   -55.2771     7.7437     8.7273     7.9887   114.7145
 1779.0000     9.4707     2.5540     0.0425   -55.6732     7.7568     8.7255     8.0014   112.9264
 1779.5000     9.4706     2.5238     0.0324   -55.6760     7.7699     8.7238     8.0143   111.1371
 1780.0000     9.4703     2.5157     0.0243   -55.8754     7.7830     8.7215     8.0295   112.3240
 1780.5000     9.4702     2.5358     0.0324   -56.2715     7.7961     8.8015     8.1028   121.2500
 1781.0000     9.4701     2.5579     0.0404   -56.4709     7.8088     8.8000     8.1763   124.5165
 1781.5000     9.4698     2.5680     0.0525   -57.2601     7.7503     8.8798     8.2504   128.0867
 1782.0000     9.4695     2.5579     0.0525   -57.2629     7.6923     8.8783     8.2488   129.2747
 1782.5000     9.4694     2.5357     0.0384   -57.8554     7.6347     8.7957     8.2474   128.0807
 1783.0000     9.4692     2.5297     0.0283   -57.8582     7.5917     8.8754     8.2460   125.1022
 1783.5000     9.4690     2.5317     0.0323   -57.8610     7.8021     8.8739     8.2450   119.7416
 1784.0000     9.4689     2.5437     0.0363   -57.8638     7.8011     9.0371     8.2433   115.8701
 1784.5000     9.4686     2.5558     0.0463   -57.4734     7.9448     8.9529     8.3183   113.1870
 1785.0000     9.4684     2.5638     0.0523   -57.4762     7.9434     9.0341     8.0905   114.9702
 1785.5000     9.4682     2.5719     0.0491   -57.2825     7.9421     9.1160     8.4690   118.5392
