~VERSION INFORMATION
 VERS.                2.0:   CWLS LOG ASCII STANDARD - VERSION 2.0
 WRAP.                 NO:   ONE LINE PER DEPTH STEP
~WELL INFORMATION
#MNEM.UNIT      DATA TYPE    INFORMATION
#----------   ------------   ------------------------------
 STRT.F            0.0000:   START DEPTH
 STOP.F          540.0000:   STOP DEPTH
 STEP.F            0.1000:   STEP LENGTH
 NULL.          -999.2500:   NO VALUE
 COMP.       F D SERV INC:   COMPANY
 WELL.      77-1 X3 #77-3:   WELL
 FLD .             TEAPOT:   FIELD
 LOC .       S3 T38N R78W:   LOCATION
 CNTY.            NATRONA:   COUNTY
 STAT.            WYOMING:   STATE
 CTRY. UNITED STATES OF AMERICA:   COUNTRY
 SRVC.     Atlas Wireline:   SERVICE COMPANY
 DATE.        20-DEC-1991:   LOGDATE
 API .       490252249300:   API NUMBER
~CURVE INFORMATION
#MNEM.UNIT       API CODE    CURVE DESCRIPTION
#----------   ------------   ------------------------------
 DEPT.F                  :   
 GRR .GAPI   07 310 01 00:   GAMMA RAY
 RFOC.OHMM   07 270 04 00:   RESISTIVITY FOCUSED LOG
 RILD.OHMM   07 120 46 00:   INDUCTION LOG DEEP RESISTIVITY
 RILM.OHMM   07 120 44 00:   INDUCTION LOG MEDIUM RESISTIVITY
 SPR .MV     07 010 01 00:   SPONTANEOUS POTENTIAL
~PARAMETER INFORMATION
#MNEM.UNIT          VALUE    DESCRIPTION
#----------   ------------   ------------------------------
 PD  .                 GL:   PERMANENT DATUM
 EPD .F              5161:   ELEVATION PERMANENT DATUM
 LMF .                 KB:   LOG MEASURED FROM
 DAPD.F                10:   FEET ABOVE PERMANENT DATUM
 DMF .                 KB:   DRILLING MEASURED FROM
 EKB .F              5171:   KELLING BUSHING
 EGL .F              5161:   GROUND LEVEL
 DATE.        20-DEC-1991:   RUN DATE
 RUN .                  1:   RUN NUMBER
 DD  .F               545:   DEPTH DRILLER
 DL  .F               543:   DEPTH LOGGER
 BLI .F               540:   BOTTOM LOG INTERVAL
 CS  .IN            8.625:   CASING SIZE
 CBD .F               175:   CASING BOTTOM DRILLER
 CBL .F               172:   CASING BOTTOM LOGGER
 BS  .IN            7.875:   BIT SIZE
 BSD .F               545:   BIT SIZE AT DEPTH
 DFT .           CHEM GEL:   DRILLING FLUID TYPE
 DFD .               16.8:   DRILLING FLUID DENSITY
 DFV .                 53:   DRILLING FLUID VISCOSITY
 DFPH.                  9:   DRILLING FLUID PH
 DFL .                  8:   DRILLING FLUID LOSS
 MSS .           FLOWLINE:   MUD SAMPLE SOURCE
 RMS .OHMM           1.55:   RESISTIVITY MUD SAMPLE
 MST .F                58:   MUD SAMPLE TEMPERATURE
 RMF .OHMM           1.16:   RESISTIVITY MUD FILTRATE SAMPLE
 MFST.F                58:   MUD FILTRATE SAMPLE TEMPERATURE
 RMC .OHMM           1.93:   RESISTIVITY MUD CAKE
 MCST.F                58:   MUD CAKE SAMPLE TEMPERATURE
 MFSS.               CALC:   MUD FILTRATE SAMPLE SOURCE
 MCSS.               CALC:   MUD CAKE SAMPLE SOURCE
 TCS .HRS               2:   TIME CURCULATED STOPPED
 MRT .F               100:   MAXIMUM RECORDED TEMPERATURE
 LUN .            HL 6307:   LOGGING UNIT NUMBER
 LUL .             CASPER:   LOGGING UNIT LOCATION
 ENGI.            WADDELL:   RECORDING ENGINEER
 WITN.             STRONG:   WITNESSED BY
 CLNT.            A2DTECH:   CLIENT CODE
 ORIG.           5" PRINT:   ORIGIN OF DATA
 UWI .       490252249300:   UNIQUE WELL ID
 DICO. A2D Technologies, Inc.:   DIGITIZING COMPANY
~OTHER INFORMATION
~A    DEPT      GRR      RFOC       RILD       RILM        SPR   
# ...
  439.2000    75.3917    10.8828     9.9224    11.0631   -47.2255
  439.3000    75.9786    10.8829     9.9224    11.0642   -47.2252
  439.4000    76.5325    10.8831     9.9224    11.0650   -47.2862
  439.5000    77.2490    10.8832     9.9224    11.0659   -47.3763
  439.6000    77.9014    10.8834     9.9224    11.0368   -47.3760
  439.7000    78.5410    10.8835     9.9436    10.9907   -47.3757
  439.8000    79.2393    10.8837     9.9922    10.9823   -47.2639
  439.9000    79.6343    10.8838     9.9922    10.8402   -47.2234
  440.0000    80.0000    10.8840     9.9922    10.7857   -47.2231
  440.1000    80.0918    10.8841     9.9922    10.7665   -47.2228
  440.2000    79.9863    10.8843     9.9922    10.7674   -47.2225
  440.3000    79.7968    10.8844     9.9922    10.7683   -47.2221
  440.4000    79.5781    10.8846     9.9922    10.7692   -47.2219
  440.5000    79.1804    10.9119     9.9922    10.7702   -47.2215
  440.6000    78.6384    10.9611     9.9369    10.7710   -47.2212
  440.7000    78.0689    10.9613     9.9224    10.7719   -47.2209
  440.8000    77.3953    10.9614     9.9224    10.7728   -47.2206
  440.9000    76.7017    10.9616     9.9224    10.7931   -47.2203
  441.0000    76.1599    10.9617     9.9224    10.8501   -47.2200
  441.1000    75.7585    10.9619     9.9224    10.8511   -47.2197
  441.2000    75.2219    10.9620     9.8681    10.9101   -47.2194
  441.3000    74.9338    10.9622     9.8531    10.9289   -47.2191
  441.4000    74.7443    10.9624     9.8841    10.9298   -47.2188
  441.5000    74.5548    10.9625     9.9224    10.9307   -47.2185
  441.6000    74.3908    10.9626     9.9224    10.9400   -47.2182
  441.7000    74.3914    10.9628     9.9224    11.0092   -47.2179
  441.8000    74.5689    10.9629     9.9224    11.0101   -47.2176
  441.9000    74.7594    10.9631     9.9224    11.0587   -47.2173
  442.0000    74.9498    10.9632     9.9224    11.1243   -47.2170
  442.1000    75.1402    10.9634     9.9224    11.1677   -47.2167
  442.2000    75.3543    10.9635     9.9224    11.1687   -47.2164
  442.3000    75.7640    10.9637     9.9224    11.1697   -47.2161
  442.4000    75.9397    10.9523     9.9224    11.1086   -47.2158
  442.5000    76.1301    10.8878     9.9224    11.0938   -47.2155
  442.6000    76.2219    10.8879     9.9224    11.0584   -47.2152
  442.7000    76.2826    10.8881     9.9224    10.9950   -47.2148
  442.8000    76.4511    10.8882     9.9224    10.9319   -47.2146
  442.9000    76.4516    10.8884     9.9224    10.8674   -47.2143
  443.0000    76.2786    10.8885     9.8697    10.8068   -47.2140
  443.1000    76.0891    10.8887     9.8531    10.7936   -47.2137
  443.2000    75.9964    10.8888     9.8239    10.7945   -47.2134
  443.3000    75.9383    10.8890     9.7668    10.7713   -47.2130
  443.4000    75.7287    10.8891     9.7099    10.7210   -47.2128
  443.5000    75.3128    10.8668     9.6480    10.7221   -47.2124
  443.6000    75.1416    10.8137     9.6480    10.6611   -47.2121
  443.7000    74.9521    10.8139     9.6480    10.6493   -47.1802
  443.8000    74.6676    10.8140     9.6200    10.6130   -47.0598
  443.9000    74.3448    10.7674     9.5807    10.5769   -47.0594
  444.0000    74.1735    10.7391     9.5753    10.5778   -47.0592
  444.1000    74.1740    10.7393     9.5137    10.5787   -46.9771
  444.2000    74.1744    10.7394     9.4643    10.5798   -46.9068
  444.3000    74.1749    10.7396     9.4473    10.5805   -46.9376
  444.4000    74.2685    10.6816     9.4204    10.5433   -47.0580
  444.5000    74.4589    10.6652     9.3813    10.5086   -47.0576
  444.6000    74.6493    10.6654     9.3766    10.5095   -46.9507
  444.7000    74.8617    10.6453     9.3158    10.5085   -46.9053
  444.8000    75.0302    10.5915     9.3158    10.4383   -46.8492
  444.9000    75.0909    10.5917     9.2421    10.3883   -46.7530
  445.0000    75.1826    10.5353     9.1604    10.3287   -46.7527
  445.1000    75.4260    10.5183     9.1071    10.2959   -46.7523
  445.2000    75.8063    10.5184     9.0501    10.2968   -46.7520
  445.3000    76.2343    10.5186     8.9321    10.2977   -46.6711
  445.4000    76.7334    10.5187     8.8867    10.2987   -46.5997
  445.5000    77.3038    10.5189     8.8697    10.2994   -46.5994
  445.6000    77.6950    10.5190     8.8697    10.3003   -46.5991
  445.7000    78.0387    10.5192     8.8697    10.3011   -46.5987
  445.8000    78.7863    10.5193     8.8697    10.2861   -46.5985
  445.9000    79.4334    10.5195     8.8697    10.2311   -46.5982
  446.0000    79.7626    10.5196     8.8697    10.2321   -46.5979
  446.1000    79.8909    10.5198     8.8697    10.2329   -46.5683
  446.2000    79.8913    10.5199     8.8697    10.2337   -46.4455
  446.3000    79.8918    10.5201     8.8697    10.2060   -46.4452
  446.4000    79.8922    10.5202     8.8697    10.1642   -46.4449
  446.5000    79.8928    10.5203     8.8697    10.1651   -46.4446
  446.6000    79.7306    10.5155     8.9141    10.1660   -46.4443
  446.7000    79.2926    10.4475     8.9321    10.1668   -46.4440
  446.8000    78.8091    10.4476     8.9321    10.1676   -46.4404
  446.9000    78.3822    10.4478     8.9321    10.1685   -46.2916
  447.0000    77.8038    10.4479     8.9346    10.1693   -46.2913
  447.1000    76.9275    10.4481     8.9949    10.1702   -46.2910
  447.2000    76.2849    10.4482     8.9949    10.1711   -46.2907
  447.3000    75.6479    10.4484     8.9949    10.1719   -46.2904
  447.4000    75.1626    10.4485     9.0182    10.1304   -46.2901
  447.5000    74.7374    10.4487     9.0582    10.1028   -46.2898
  447.6000    74.1608    10.4488     9.0582    10.1036   -46.1859
  447.7000    73.2772    10.4489     9.0582    10.1045   -46.1375
  447.8000    73.1187    10.4491     9.0582    10.1054   -46.0844
  447.9000    73.0498    10.4493     9.0918    10.0515   -45.9851
  448.0000    72.9680    10.2329     9.1219    10.0367   -45.9828
  448.1000    72.8224    10.2331     9.1219    10.0375   -45.8327
  448.2000    72.8228    10.2306     9.1219    10.0185   -45.8325
  448.3000    72.8234    10.1622     9.1219     9.9692   -45.7546
  448.4000    72.9808    10.1623     9.1219     9.9702   -45.6279
  448.5000    73.1712    10.1625     9.1219     9.9710   -45.5281
  448.6000    73.3617    10.1371     9.0995     9.9719   -45.5278
  448.7000    73.5941    10.0921     9.0466     9.9404   -45.5274
  448.8000    73.9708    10.0905     8.9939     9.9041   -45.5272
  448.9000    74.1960    10.0222     8.9321     9.8955   -45.4499
  449.0000    74.1964    10.0223     8.8897     9.8369   -45.3748
  449.1000    74.1968     9.9864     8.8697     9.7823   -45.3745
  449.2000    74.1973     9.9529     8.8484     9.7262   -45.3742
  449.3000    74.1977     9.9531     8.7969     9.7029   -45.3738
  449.4000    74.1982     9.9532     8.7453     9.6823   -45.2718
  449.5000    74.1987     9.9534     8.6245     9.6368   -45.2216
  449.6000    74.0457     9.9068     8.6245     9.6378   -45.1703
  449.7000    73.7411     9.8844     8.5941     9.5283   -45.0692
  449.8000    73.4384     9.8846     8.5642     9.4620   -45.0687
  449.9000    73.2872     9.8731     8.5542     9.4404   -44.9168
  450.0000    73.2877     9.8161     8.5044     9.4193   -44.9165
  450.1000    73.0982     9.7595     8.4550     9.3763   -44.8405
  450.2000    73.0603     9.7032     8.4450     9.3770   -44.7642
  450.3000    73.0607     9.6805     8.4158     9.2479   -44.7639
  450.4000    72.9115     9.6587     8.3860     9.2049   -44.7636
  450.5000    72.5685     9.6134     8.3860     9.1521   -44.6373
  450.6000    72.3772     9.6136     8.3860     9.0996   -44.6112
  450.7000    72.3776     9.5589     8.3378     9.0358   -44.5357
  450.8000    72.0785     9.5470     8.3275     8.9342   -44.4091
  450.9000    71.6991     9.5471     8.3328     8.9351   -44.3068
  451.0000    71.2466     9.5265     8.3420     8.8926   -44.3065
  451.1000    70.7119     9.4810     8.3511     8.8091   -44.3062
  451.2000    70.3251     9.4811     8.3602     8.7297   -44.3059
  451.3000    70.1393     9.4280     8.3694     8.6918   -44.3056
