~VERSION INFORMATION
 VERS.                2.0:   CWLS LOG ASCII STANDARD - VERSION 2.0
 WRAP.                 NO:   ONE LINE PER DEPTH STEP
~WELL INFORMATION
#MNEM.UNIT      DATA TYPE    INFORMATION
#----------   ------------   ------------------------------
 STRT.F            0.0000:   START DEPTH
 STOP.F          540.0000:   STOP DEPTH
 STEP.F            0.1000:   STEP LENGTH
 NULL.          -999.2500:   NO VALUE
 COMP.       F D SERV INC:   COMPANY
 WELL.      77-1 X3 #77-3:   WELL
 FLD .             TEAPOT:   FIELD
 LOC .       S3 T38N R78W:   LOCATION
 CNTY.            NATRONA:   COUNTY
 STAT.            WYOMING:   STATE
 CTRY. UNITED STATES OF AMERICA:   COUNTRY
 SRVC.     Atlas Wireline:   SERVICE COMPANY
 DATE.        20-DEC-1991:   LOGDATE
 API .       490252249300:   API NUMBER
~CURVE INFORMATION
#MNEM.UNIT       API CODE    CURVE DESCRIPTION
#----------   ------------   ------------------------------
 DEPT.F                  :   
 GRR .GAPI   07 310 01 00:   GAMMA RAY
 RFOC.OHMM   07 270 04 00:   RESISTIVITY FOCUSED LOG
 RILD.OHMM   07 120 46 00:   INDUCTION LOG DEEP RESISTIVITY
 RILM.OHMM   07 120 44 00:   INDUCTION LOG MEDIUM RESISTIVITY
 SPR .MV     07 010 01 00:   SPONTANEOUS POTENTIAL
~PARAMETER INFORMATION
#MNEM.UNIT          VALUE    DESCRIPTION
#----------   ------------   ------------------------------
 PD  .                 GL:   PERMANENT DATUM
 EPD .F              5161:   ELEVATION PERMANENT DATUM
 LMF .                 KB:   LOG MEASURED FROM
 DAPD.F                10:   FEET ABOVE PERMANENT DATUM
 DMF .                 KB:   DRILLING MEASURED FROM
 EKB .F              5171:   KELLING BUSHING
 EGL .F              5161:   GROUND LEVEL
 DATE.        20-DEC-1991:   RUN DATE
 RUN .                  1:   RUN NUMBER
 DD  .F               545:   DEPTH DRILLER
 DL  .F               543:   DEPTH LOGGER
 BLI .F               540:   BOTTOM LOG INTERVAL
 CS  .IN            8.625:   CASING SIZE
 CBD .F               175:   CASING BOTTOM DRILLER
 CBL .F               172:   CASING BOTTOM LOGGER
 BS  .IN            7.875:   BIT SIZE
 BSD .F               545:   BIT SIZE AT DEPTH
 DFT .           CHEM GEL:   DRILLING FLUID TYPE
 DFD .               16.8:   DRILLING FLUID DENSITY
 DFV .                 53:   DRILLING FLUID VISCOSITY
 DFPH.                  9:   DRILLING FLUID PH
 DFL .                  8:   DRILLING FLUID LOSS
 MSS .           FLOWLINE:   MUD SAMPLE SOURCE
 RMS .OHMM           1.55:   RESISTIVITY MUD SAMPLE
 MST .F                58:   MUD SAMPLE TEMPERATURE
 RMF .OHMM           1.16:   RESISTIVITY MUD FILTRATE SAMPLE
 MFST.F                58:   MUD FILTRATE SAMPLE TEMPERATURE
 RMC .OHMM           1.93:   RESISTIVITY MUD CAKE
 MCST.F                58:   MUD CAKE SAMPLE TEMPERATURE
 MFSS.               CALC:   MUD FILTRATE SAMPLE SOURCE
 MCSS.               CALC:   MUD CAKE SAMPLE SOURCE
 TCS .HRS               2:   TIME CURCULATED STOPPED
 MRT .F               100:   MAXIMUM RECORDED TEMPERATURE
 LUN .            HL 6307:   LOGGING UNIT NUMBER
 LUL .             CASPER:   LOGGING UNIT LOCATION
 ENGI.            WADDELL:   RECORDING ENGINEER
 WITN.             STRONG:   WITNESSED BY
 CLNT.            A2DTECH:   CLIENT CODE
 ORIG.           5" PRINT:   ORIGIN OF DATA
 UWI .       490252249300:   UNIQUE WELL ID
 DICO. A2D Technologies, Inc.:   DIGITIZING COMPANY
~OTHER INFORMATION
~A    DEPT      GRR      RFOC       RILD       RILM        SPR   
# ...
  280.6000    98.5041     6.5621     5.7772     5.9159    45.5235
  280.7000    97.8210     6.5258     5.7775     5.9163    45.5235
  280.8000    97.8228     6.5177     5.7777     5.9168    45.5235
  280.9000    97.8249     6.5184     5.7779     5.9172    45.5235
  281.0000    97.8265     6.5190     5.7591     5.9176    45.5235
  281.1000    97.8283     6.5196     5.7381     5.9180    45.5235
  281.2000    97.8301     6.5203     5.7383     5.9184    45.5235
  281.3000    97.8320     6.5209     5.7386     5.9188    45.5235
  281.4000    97.8338     6.5216     5.7388     5.9192    45.5482
  281.5000    97.8359     6.5222     5.7146     5.9197    45.6753
  281.6000    97.6774     6.5228     5.6818     5.9201    45.6753
  281.7000    97.6110     6.5185     5.6388     5.8949    45.7746
  281.8000    97.6128     6.4788     5.5810     5.8797    45.9007
  281.9000    97.5700     6.4794     5.5813     5.8801    45.9788
  282.0000    97.3760     6.4800     5.5524     5.8805    46.0010
  282.1000    96.9336     6.4806     5.4985     5.8809    46.1305
  282.2000    96.6204     6.4813     5.4505     5.8813    46.1305
  282.3000    96.3615     6.4819     5.4192     5.8564    46.2274
  282.4000    96.1735     6.4826     5.3860     5.8229    46.2822
  282.5000    95.9856     6.4832     5.3154     5.7895    46.3278
  282.6000    95.8009     6.4577     5.2892     5.7610    46.4538
  282.7000    96.0314     6.4210     5.2589     5.7614    46.5857
  282.8000    96.1875     6.3845     5.2154     5.7305    46.5857
  282.9000    96.4953     6.3513     5.1623     5.7221    46.5857
  283.0000    96.8767     6.3520     5.1334     5.7047    46.6545
  283.1000    97.2972     6.3204     5.1337     5.6721    46.7375
  283.2000    97.8685     6.2845     5.1338     5.6439    46.7375
  283.3000    98.5538     6.2488     5.1341     5.6444    46.7375
  283.4000    98.8591     6.2133     5.1343     5.6142    46.7375
  283.5000    99.1271     6.1801     5.1345     5.6059    46.7375
  283.6000    99.2438     6.1809     5.1347     5.5890    46.7375
  283.7000    99.2457     6.1509     5.1349     5.5464    46.7375
  283.8000    99.2475     6.1159     5.1582     5.4907    46.7375
  283.9000    98.6863     6.0812     5.1715     5.4912    46.7375
  284.0000    98.4170     6.0551     5.1717     5.4620    46.7375
  284.1000    98.2291     6.0544     5.1719     5.4307    46.7375
  284.2000    98.0411     6.0143     5.1721     5.4162    46.7375
  284.3000    97.8531     6.0148     5.1723     5.3962    46.7375
  284.4000    97.6603     6.0153     5.1726     5.3379    46.7249
  284.5000    97.6621     6.0159     5.1728     5.3050    46.5857
  284.6000    97.6639     6.0165     5.1730     5.3054    46.5857
  284.7000    97.6658     6.0171     5.1732     5.2614    46.5857
  284.8000    97.6676     5.9760     5.1735     5.2167    46.5857
  284.9000    97.7003     5.9764     5.1469     5.1868    46.5857
  285.0000    97.8996     5.9770     5.1377     5.1571    46.5857
  285.1000    97.9014     5.9776     5.1379     5.1251    46.5857
  285.2000    98.1905     5.9849     5.1302     5.0711    46.5857
  285.3000    98.3616     6.0206     5.1008     5.0337    46.5857
  285.4000    98.4301     6.0212     5.0671     5.0049    46.5857
  285.5000    98.5936     6.0218     5.0177     4.9762    46.5857
  285.6000    98.5955     6.0224     4.9784     4.9444    46.5934
  285.7000    98.7767     6.0230     4.9498     4.8827    46.7375
  285.8000    99.1093     6.0236     4.9151     4.8571    46.7375
  285.9000    99.2858     6.0242     4.8594     4.8094    46.7375
  286.0000    99.2877     6.0248     4.8596     4.7682    46.7375
  286.1000    99.3149     6.0253     4.8372     4.7409    46.7375
  286.2000    99.5198     6.0067     4.8261     4.7138    46.7375
  286.3000    99.5215     5.9846     4.8154     4.6843    46.7375
  286.4000    99.5233     5.9802     4.7878     4.6354    46.6319
  286.5000    99.5251     5.9442     4.7595     4.6200    46.5857
  286.6000    99.5269     5.9125     4.7330     4.6067    46.5857
  286.7000    99.5288     5.8789     4.7266     4.5885    46.5857
  286.8000    99.5307     5.8456     4.7268     4.5860    46.5857
  286.9000    99.5324     5.8015     4.7176     4.5572    46.5857
  287.0000    99.5342     5.7352     4.6942     4.5336    46.4825
  287.1000    99.5361     5.6642     4.6944     4.5076    46.4340
  287.2000    99.5379     5.6050     4.6694     4.4949    46.4340
  287.3000    99.5397     5.5638     4.6426     4.4952    46.4340
  287.4000    99.5417     5.5161     4.6160     4.4955    46.4340
  287.5000    99.5434     5.4626     4.5895     4.4959    46.4340
  287.6000    99.5452     5.4285     4.5656     4.4962    46.4340
  287.7000    99.5470     5.3598     4.5658     4.4965    46.5090
  287.8000    99.5489     5.2781     4.5194     4.4968    46.5857
  287.9000    99.5335     5.1878     4.5026     4.4971    46.5857
  288.0000    99.3244     5.1272     4.4906     4.4974    46.5857
  288.1000    99.3260     5.0981     4.4715     4.4978    46.7098
  288.2000    99.1979     5.0691     4.4717     4.4980    46.7375
  288.3000    99.0099     5.0365     4.4719     4.4984    46.7375
  288.4000    98.8219     5.0117     4.4503     4.4987    46.7844
  288.5000    98.6483     4.9833     4.4410     4.4914    46.9317
  288.6000    98.6505     4.9681     4.4412     4.4680    47.1927
  288.7000    98.4863     4.9686     4.4414     4.4683    47.1927
  288.8000    98.0438     4.9691     4.4416     4.4456    47.2886
  288.9000    97.6537     4.9697     4.4159     4.4201    47.3445
  289.0000    97.3653     4.9701     4.4109     4.4073    47.3445
  289.1000    96.8212     4.9706     4.3961     4.4002    47.3445
  289.2000    96.6067     4.9711     4.3805     4.3772    47.3445
  289.3000    95.9562     4.9781     4.3807     4.3775    47.3445
  289.4000    95.3233     5.0068     4.3809     4.3554    47.3445
  289.5000    94.6696     5.0074     4.3567     4.3133    47.3445
  289.6000    94.0072     5.0317     4.3506     4.2877    47.3865
  289.7000    93.6206     5.0434     4.3508     4.2809    47.4962
  289.8000    92.9647     5.0559     4.3425     4.2564    47.4962
  289.9000    92.6457     5.0797     4.3176     4.2291    47.6130
  290.0000    92.3896     5.0802     4.2908     4.1864    47.7390
  290.1000    92.2849     5.1102     4.2455     4.1546    47.8651
  290.2000    92.2868     5.1167     4.2140     4.1080    48.0308
  290.3000    92.2886     5.1172     4.1657     4.0372    48.2828
  290.4000    92.2907     5.1292     4.0940     3.9642    48.5584
  290.5000    92.2922     5.1541     4.0196     3.8369    48.7871
  290.6000    92.2941     5.1546     3.8907     3.7369    49.0391
  290.7000    92.2959     5.2138     3.7747     3.7057    49.2283
  290.8000    92.2977     5.2280     3.6599     3.7028    49.3916
  290.9000    92.2995     5.2286     3.5647     3.6548    49.6322
  291.0000    92.0734     5.2400     3.4780     3.6182    49.7724
  291.1000    91.7653     5.2662     3.3778     3.5491    49.7724
  291.2000    91.5038     5.2667     3.2433     3.4677    49.8586
  291.3000    91.1603     5.2672     3.1514     3.3576    49.9846
  291.4000    90.6319     5.2677     3.0547     3.1614    50.1107
  291.5000    90.2534     5.2682     2.9675     2.8636    50.2276
  291.6000    89.5730     5.2585     2.8662     2.6974    50.2276
  291.7000    89.1183     5.2326     2.7035     2.5737    50.2276
  291.8000    88.7778     5.2332     2.5381     2.4922    50.2276
  291.9000    88.6648     5.2056     2.4033     2.3961    50.2276
  292.0000    88.7032     5.1546     2.2665     2.2279    50.2276
  292.1000    88.8968     5.1109     2.1484     1.9512    50.2276
  292.2000    89.4622     5.0728     2.0786     1.8296    50.2276
  292.3000    90.6305     5.0055     2.0288     1.7418    50.1206
  292.4000    91.8501     4.8494     1.9955     1.7000    49.9945
  292.5000    93.1355     4.6524     1.9697     1.6830    49.9241
  292.6000    94.6221     4.3733     1.9470     1.6739    49.9241
  292.7000    95.9854     3.9728     1.9283     1.6740    49.9199
