~VERSION INFORMATION
 VERS.                2.0:   CWLS LOG ASCII STANDARD - VERSION 2.0
 WRAP.                 NO:   ONE LINE PER DEPTH STEP
~WELL INFORMATION
#MNEM.UNIT      DATA TYPE    INFORMATION
#----------   ------------   ------------------------------
 STRT.F            0.0000:   START DEPTH
 STOP.F          540.0000:   STOP DEPTH
 STEP.F            0.1000:   STEP LENGTH
 NULL.          -999.2500:   NO VALUE
 COMP.       F D SERV INC:   COMPANY
 WELL.      77-1 X3 #77-3:   WELL
 FLD .             TEAPOT:   FIELD
 LOC .       S3 T38N R78W:   LOCATION
 CNTY.            NATRONA:   COUNTY
 STAT.            WYOMING:   STATE
 CTRY. UNITED STATES OF AMERICA:   COUNTRY
 SRVC.     Atlas Wireline:   SERVICE COMPANY
 DATE.        20-DEC-1991:   LOGDATE
 API .       490252249300:   API NUMBER
~CURVE INFORMATION
#MNEM.UNIT       API CODE    CURVE DESCRIPTION
#----------   ------------   ------------------------------
 DEPT.F                  :   
 GRR .GAPI   07 310 01 00:   GAMMA RAY
 RFOC.OHMM   07 270 04 00:   RESISTIVITY FOCUSED LOG
 RILD.OHMM   07 120 46 00:   INDUCTION LOG DEEP RESISTIVITY
 RILM.OHMM   07 120 44 00:   INDUCTION LOG MEDIUM RESISTIVITY
 SPR .MV     07 010 01 00:   SPONTANEOUS POTENTIAL
~PARAMETER INFORMATION
#MNEM.UNIT          VALUE    DESCRIPTION
#----------   ------------   ------------------------------
 PD  .                 GL:   PERMANENT DATUM
 EPD .F              5161:   ELEVATION PERMANENT DATUM
 LMF .                 KB:   LOG MEASURED FROM
 DAPD.F                10:   FEET ABOVE PERMANENT DATUM
 DMF .                 KB:   DRILLING MEASURED FROM
 EKB .F              5171:   KELLING BUSHING
 EGL .F              5161:   GROUND LEVEL
 DATE.        20-DEC-1991:   RUN DATE
 RUN .                  1:   RUN NUMBER
 DD  .F               545:   DEPTH DRILLER
 DL  .F               543:   DEPTH LOGGER
 BLI .F               540:   BOTTOM LOG INTERVAL
 CS  .IN            8.625:   CASING SIZE
 CBD .F               175:   CASING BOTTOM DRILLER
 CBL .F               172:   CASING BOTTOM LOGGER
 BS  .IN            7.875:   BIT SIZE
 BSD .F               545:   BIT SIZE AT DEPTH
 DFT .           CHEM GEL:   DRILLING FLUID TYPE
 DFD .               16.8:   DRILLING FLUID DENSITY
 DFV .                 53:   DRILLING FLUID VISCOSITY
 DFPH.                  9:   DRILLING FLUID PH
 DFL .                  8:   DRILLING FLUID LOSS
 MSS .           FLOWLINE:   MUD SAMPLE SOURCE
 RMS .OHMM           1.55:   RESISTIVITY MUD SAMPLE
 MST .F                58:   MUD SAMPLE TEMPERATURE
 RMF .OHMM           1.16:   RESISTIVITY MUD FILTRATE SAMPLE
 MFST.F                58:   MUD FILTRATE SAMPLE TEMPERATURE
 RMC .OHMM           1.93:   RESISTIVITY MUD CAKE
 MCST.F                58:   MUD CAKE SAMPLE TEMPERATURE
 MFSS.               CALC:   MUD FILTRATE SAMPLE SOURCE
 MCSS.               CALC:   MUD CAKE SAMPLE SOURCE
 TCS .HRS               2:   TIME CURCULATED STOPPED
 MRT .F               100:   MAXIMUM RECORDED TEMPERATURE
 LUN .            HL 6307:   LOGGING UNIT NUMBER
 LUL .             CASPER:   LOGGING UNIT LOCATION
 ENGI.            WADDELL:   RECORDING ENGINEER
 WITN.             STRONG:   WITNESSED BY
 CLNT.            A2DTECH:   CLIENT CODE
 ORIG.           5" PRINT:   ORIGIN OF DATA
 UWI .       490252249300:   UNIQUE WELL ID
 DICO. A2D Technologies, Inc.:   DIGITIZING COMPANY
~OTHER INFORMATION
~A    DEPT      GRR      RFOC       RILD       RILM        SPR   
# ...
  378.2000    70.0210    10.9284    11.3013    11.0543   -56.4492
  378.3000    70.0226    10.9293    11.2391    10.9857   -56.4492
  378.4000    69.8594    10.8796    11.1739    10.9861   -56.4492
  378.5000    69.7968    10.8552    11.1444    10.9410   -56.5288
  378.6000    69.7114    10.8561    11.1224    10.9106   -56.6550
  378.7000    69.5233    10.8570    11.0669    10.8914   -56.7527
  378.8000    69.3351    10.8579    11.0670    10.8288   -56.7557
  378.9000    69.1176    10.8588    11.0672    10.7607   -56.9044
  379.0000    68.9589    10.8597    11.0199    10.6487   -56.9044
  379.1000    68.5289    10.8606    10.9560    10.6123   -56.9044
  379.2000    68.2082    10.8615    10.8925    10.6127   -56.9044
  379.3000    68.1662    10.8498    10.8292    10.5949   -56.9044
  379.4000    67.9826    10.7878    10.7620    10.5397   -56.9044
  379.5000    67.9843    10.7887    10.7621    10.5403   -56.9044
  379.6000    67.9854    10.7896    10.7623    10.4863   -56.9044
  379.7000    68.1032    10.7530    10.7624    10.4260   -56.9044
  379.8000    68.2941    10.7164    10.7626    10.3953   -56.9044
  379.9000    68.5238    10.7048    10.7551    10.3958   -56.9299
  380.0000    68.9041    10.6437    10.6877    10.3914   -57.0562
  380.1000    69.2845    10.6445    10.6878    10.3244   -57.0562
  380.2000    69.6648    10.5961    10.6880    10.3247   -57.0562
  380.3000    69.9333    10.5723    10.6881    10.3252   -57.0562
  380.4000    70.1972    10.5732    10.6883    10.3256   -57.1057
  380.5000    70.5434    10.5741    10.6884    10.3260   -57.2319
  380.6000    70.7388    10.5750    10.6886    10.3265   -57.3596
  380.7000    70.9251    10.5760    10.6887    10.3270   -57.3596
  380.8000    70.9699    10.5277    10.6889    10.3273   -57.3596
  380.9000    70.9712    10.5041    10.6890    10.3278   -57.3596
  381.0000    71.0411    10.5049    10.6892    10.3282   -57.3596
  381.1000    71.2023    10.5058    10.6893    10.3286   -57.3596
  381.2000    71.2037    10.5067    10.6895    10.3291   -57.3596
  381.3000    71.2050    10.5078    10.6337    10.3296   -57.3596
  381.4000    71.2064    10.5085    10.6151    10.3299   -57.4573
  381.5000    71.1050    10.5093    10.6153    10.3304   -57.5114
  381.6000    70.9808    10.5102    10.6154    10.3574   -57.5114
  381.7000    70.9320    10.5111    10.6156    10.4036   -57.5114
  381.8000    70.5270    10.5120    10.6157    10.4086   -57.5114
  381.9000    70.1767    10.5866    10.6159    10.5509   -57.5114
  382.0000    69.6621    10.5874    10.6588    10.5513   -57.6075
  382.1000    69.1931    10.5882    10.6908    10.5905   -57.6631
  382.2000    68.8749    10.5891    10.6910    10.6261   -57.6631
  382.3000    68.6868    10.6148    10.6911    10.6265   -57.6826
  382.4000    68.4805    10.7397    10.6913    10.6284   -57.8149
  382.5000    68.3105    10.8918    10.7466    10.7020   -57.9350
  382.6000    68.2548    11.0461    10.7668    10.8049   -57.9666
  382.7000    68.2562    11.2020    10.7970    10.8923   -58.0357
  382.8000    68.2575    11.3340    10.8603    10.9562   -58.1184
  382.9000    68.2589    11.4406    10.9287    11.0340   -58.1184
  383.0000    68.2604    11.4415    11.0736    11.1627   -58.1184
  383.1000    68.2616    11.5228    11.0737    11.2409   -58.1184
  383.2000    68.2630    11.5236    11.1610    11.4006   -58.2114
  383.3000    68.3534    11.6055    11.2921    11.5200   -58.2701
  383.4000    68.5443    11.7148    11.4068    11.6419   -58.3541
  383.5000    68.7237    11.7840    11.4736    11.8330   -58.5900
  383.6000    68.7253    11.8537    11.5502    11.9724   -58.7253
  383.7000    68.8886    11.9239    11.6673    12.2530   -58.7253
  383.8000    68.8329    12.0506    11.7588    12.4839   -58.8169
  383.9000    68.6448    12.1499    11.8596    12.7478   -58.9431
  384.0000    68.4566    12.2218    11.9808    13.0180   -59.0693
  384.1000    68.2616    12.3084    12.0548    13.2328   -59.1955
  384.2000    67.8203    12.4533    12.2174    13.3910   -59.3323
  384.3000    67.5064    12.5270    12.3399    13.7003   -59.4479
  384.4000    66.8914    12.6011    12.5328    13.9596   -59.7542
  384.5000    66.2946    12.7202    12.6869    14.3018   -60.1328
  384.6000    65.8758    12.8400    12.7985    14.6909   -60.4725
  384.7000    65.2812    12.9159    13.0207    15.0362   -60.7516
  384.8000    61.8925    12.9923    13.1978    15.4019   -61.3050
  384.9000    60.8228    13.1455    13.3286    15.7524   -61.6472
  385.0000    59.1553    13.2385    13.4347    16.0519   -62.0258
  385.1000    57.1110    13.3637    13.5134    16.3346   -62.2784
  385.2000    54.9115    13.5211    13.6307    16.6221   -62.4421
  385.3000    52.9950    13.6803    13.8711    16.8992   -62.6826
  385.4000    52.0603    13.8413    14.1573    17.1070   -62.8225
  385.5000    51.7077    14.0372    14.4365    17.3938   -62.9350
  385.6000    51.4100    14.3030    14.7227    17.6232   -63.0612
  385.7000    51.1032    14.5893    14.9827    17.8868   -63.1259
  385.8000    50.9468    14.8472    15.2677    18.2384   -63.1619
  385.9000    50.9484    15.1095    15.6274    18.6669   -63.2881
  386.0000    50.9498    15.3762    16.0624    19.1339   -63.4294
  386.1000    50.8073    15.9237    16.3756    19.7716   -63.4294
  386.2000    50.7242    16.3016    16.7626    21.1098   -63.5149
  386.3000    50.7918    16.7249    17.1583    22.4760   -63.5812
  386.4000    50.9552    17.1197    17.5402    23.4945   -63.5812
  386.5000    50.9567    17.5026    17.8512    24.1149   -63.5812
  386.6000    51.1361    17.8116    18.3521    24.2673   -63.5812
  386.7000    51.4662    18.0217    18.7956    24.1389   -63.5812
  386.8000    51.7461    18.4058    19.2824    24.0002   -63.5812
  386.9000    51.9370    18.7743    19.6897    23.8624   -63.5812
  387.0000    52.1507    19.1513    20.0372    23.6825   -63.5812
  387.1000    52.5631    19.5337    20.3889    23.4246   -63.5812
  387.2000    52.7379    19.6493    20.5319    23.2775   -63.5812
  387.3000    53.0635    19.8810    20.6288    23.1562   -63.6892
  387.4000    53.4438    20.0217    20.7497    23.0232   -63.7329
  387.5000    53.7100    20.1402    20.8714    22.8909   -63.7898
  387.6000    53.7297    20.2121    20.9693    22.8383   -63.9160
  387.7000    53.9412    20.2374    20.9696    22.9721   -64.0364
  387.8000    53.9425    20.3571    20.9699    23.1213   -64.0364
  387.9000    53.9438    20.4775    20.8733    23.1222   -64.1429
  388.0000    54.0365    20.5030    20.7522    23.2161   -64.1882
  388.1000    54.1224    20.5047    20.6318    23.2862   -64.2435
  388.2000    53.9478    20.4589    20.5121    23.2489   -64.3399
  388.3000    53.9495    20.3656    20.3915    23.1260   -64.3442
  388.4000    53.9507    20.3673    20.2748    23.1272   -64.4917
  388.5000    53.9521    20.2510    20.1573    23.0105   -64.3867
  388.6000    54.1269    20.2290    20.0403    22.7892   -64.3399
  388.7000    54.4593    20.2307    19.9241    22.5886   -64.2860
  388.8000    54.6411    20.1855    19.7880    22.3893   -64.1882
  388.9000    54.6427    20.0701    19.5534    22.0199   -64.1826
  389.0000    55.1232    19.9554    19.4426    21.8762   -63.8847
  389.1000    55.4511    19.8414    19.4173    21.6591   -63.7812
  389.2000    55.7242    19.4563    19.4176    21.4920   -63.5771
  389.3000    56.1046    19.1425    19.3759    21.2005   -63.2724
  389.4000    56.4895    18.9227    19.2825    20.7142   -62.8938
  389.5000    57.1623    18.7269    19.2828    20.2507   -62.5177
  389.6000    57.3187    18.6198    19.2831    19.9828   -62.3672
  389.7000    57.6260    18.6214    19.2833    19.7878   -62.1634
  389.8000    58.0064    18.5366    19.2836    19.7072   -61.9874
  389.9000    58.3479    18.4950    19.2433    19.7080   -61.8612
  390.0000    58.5388    18.4965    19.1316    19.6814   -61.7602
  390.1000    58.9192    18.4766    19.0160    19.5725   -61.7602
  390.2000    59.1489    18.3710    19.0162    19.5735   -61.6343
  390.3000    59.2279    18.2451    18.9329    19.5742   -61.5081
