~VERSION INFORMATION
 VERS.                2.0:   CWLS LOG ASCII STANDARD - VERSION 2.0
 WRAP.                 NO:   ONE LINE PER DEPTH STEP
~WELL INFORMATION
#MNEM.UNIT      DATA TYPE    INFORMATION
#----------   ------------   ------------------------------
 STRT.F            0.0000:   START DEPTH
 STOP.F          540.0000:   STOP DEPTH
 STEP.F            0.1000:   STEP LENGTH
 NULL.          -999.2500:   NO VALUE
 COMP.       F D SERV INC:   COMPANY
 WELL.      77-1 X3 #77-3:   WELL
 FLD .             TEAPOT:   FIELD
 LOC .       S3 T38N R78W:   LOCATION
 CNTY.            NATRONA:   COUNTY
 STAT.            WYOMING:   STATE
 CTRY. UNITED STATES OF AMERICA:   COUNTRY
 SRVC.     Atlas Wireline:   SERVICE COMPANY
 DATE.        20-DEC-1991:   LOGDATE
 API .       490252249300:   API NUMBER
~CURVE INFORMATION
#MNEM.UNIT       API CODE    CURVE DESCRIPTION
#----------   ------------   ------------------------------
 DEPT.F                  :   
 GRR .GAPI   07 310 01 00:   GAMMA RAY
 RFOC.OHMM   07 270 04 00:   RESISTIVITY FOCUSED LOG
 RILD.OHMM   07 120 46 00:   INDUCTION LOG DEEP RESISTIVITY
 RILM.OHMM   07 120 44 00:   INDUCTION LOG MEDIUM RESISTIVITY
 SPR .MV     07 010 01 00:   SPONTANEOUS POTENTIAL
~PARAMETER INFORMATION
#MNEM.UNIT          VALUE    DESCRIPTION
#----------   ------------   ------------------------------
 PD  .                 GL:   PERMANENT DATUM
 EPD .F              5161:   ELEVATION PERMANENT DATUM
 LMF .                 KB:   LOG MEASURED FROM
 DAPD.F                10:   FEET ABOVE PERMANENT DATUM
 DMF .                 KB:   DRILLING MEASURED FROM
 EKB .F              5171:   KELLING BUSHING
 EGL .F              5161:   GROUND LEVEL
 DATE.        20-DEC-1991:   RUN DATE
 RUN .                  1:   RUN NUMBER
 DD  .F               545:   DEPTH DRILLER
 DL  .F               543:   DEPTH LOGGER
 BLI .F               540:   BOTTOM LOG INTERVAL
 CS  .IN            8.625:   CASING SIZE
 CBD .F               175:   CASING BOTTOM DRILLER
 CBL .F               172:   CASING BOTTOM LOGGER
 BS  .IN            7.875:   BIT SIZE
 BSD .F               545:   BIT SIZE AT DEPTH
 DFT .           CHEM GEL:   DRILLING FLUID TYPE
 DFD .               16.8:   DRILLING FLUID DENSITY
 DFV .                 53:   DRILLING FLUID VISCOSITY
 DFPH.                  9:   DRILLING FLUID PH
 DFL .                  8:   DRILLING FLUID LOSS
 MSS .           FLOWLINE:   MUD SAMPLE SOURCE
 RMS .OHMM           1.55:   RESISTIVITY MUD SAMPLE
 MST .F                58:   MUD SAMPLE TEMPERATURE
 RMF .OHMM           1.16:   RESISTIVITY MUD FILTRATE SAMPLE
 MFST.F                58:   MUD FILTRATE SAMPLE TEMPERATURE
 RMC .OHMM           1.93:   RESISTIVITY MUD CAKE
 MCST.F                58:   MUD CAKE SAMPLE TEMPERATURE
 MFSS.               CALC:   MUD FILTRATE SAMPLE SOURCE
 MCSS.               CALC:   MUD CAKE SAMPLE SOURCE
 TCS .HRS               2:   TIME CURCULATED STOPPED
 MRT .F               100:   MAXIMUM RECORDED TEMPERATURE
 LUN .            HL 6307:   LOGGING UNIT NUMBER
 LUL .             CASPER:   LOGGING UNIT LOCATION
 ENGI.            WADDELL:   RECORDING ENGINEER
 WITN.             STRONG:   WITNESSED BY
 CLNT.            A2DTECH:   CLIENT CODE
 ORIG.           5" PRINT:   ORIGIN OF DATA
 UWI .       490252249300:   UNIQUE WELL ID
 DICO. A2D Technologies, Inc.:   DIGITIZING COMPANY
~OTHER INFORMATION
~A    DEPT      GRR      RFOC       RILD       RILM        SPR   
# ...
  353.8000    73.7966    11.8888    12.6880    13.0382   -58.7253
  353.9000    73.7977    11.9315    12.6882    13.0387   -58.7253
  354.0000    73.6773    12.0020    12.6883    13.0393   -58.7253
  354.1000    73.4892    12.0730    12.6885    13.0398   -58.7253
  354.2000    73.3010    12.1444    12.6887    13.0404   -58.6095
  354.3000    73.1076    12.1454    12.6889    13.0409   -58.5736
  354.4000    72.6633    12.1464    12.6890    13.0414   -58.5736
  354.5000    72.3524    12.1900    12.6892    13.0420   -58.6128
  354.6000    71.8575    12.2335    12.6894    13.0426   -58.7253
  354.7000    71.2120    12.2488    12.6896    13.0431   -58.7253
  354.8000    70.4950    12.3212    12.6898    13.0436   -58.7253
  354.9000    69.9278    12.3225    12.6899    13.0442   -58.7253
  355.0000    69.3607    12.3808    12.6369    13.0447   -58.7253
  355.1000    68.9451    12.4106    12.6016    13.0453   -58.7253
  355.2000    68.5674    12.4117    12.6018    13.0459   -58.7253
  355.3000    68.1898    12.4127    12.5851    13.0464   -58.7253
  355.4000    67.7772    12.4137    12.4268    13.0469   -58.7253
  355.5000    67.1987    12.4150    12.4269    13.0475   -58.7253
  355.6000    66.8285    12.3583    12.3757    13.0480   -58.7253
  355.7000    66.3041    12.2877    12.3405    13.0438   -58.7253
  355.8000    65.9531    12.2458    12.3186    12.9584   -58.7253
  355.9000    65.6958    12.2326    12.2546    12.8943   -58.7253
  356.0000    65.3788    12.1627    12.2548    12.8202   -58.6141
  356.1000    65.3804    12.0793    12.1906    12.7802   -58.4021
  356.2000    65.3817    11.9686    12.1695    12.7807   -58.2701
  356.3000    65.3831    11.9137    12.1343    12.7776   -58.2355
  356.4000    65.3845    11.8871    12.0849    12.6929   -58.1184
  356.5000    65.4505    11.8327    12.0783    12.6934   -58.1184
  356.6000    65.6155    11.8339    12.0008    12.6467   -58.1184
  356.7000    65.6170    11.7663    12.0010    12.5740   -58.1184
  356.8000    65.4417    11.6991    12.0011    12.5017   -58.1184
  356.9000    65.3913    11.6322    12.0013    12.4323   -58.1184
  357.0000    65.2938    11.5926    12.0015    12.4329   -58.1184
  357.1000    64.9254    11.5936    12.0016    12.4334   -58.1184
  357.2000    64.1899    11.5946    12.0018    12.4339   -58.1184
  357.3000    63.5704    11.5955    12.0020    12.4344   -58.1184
  357.4000    63.0557    11.5965    12.0021    12.4349   -58.1184
  357.5000    62.6218    11.5975    12.0361    12.4355   -58.1500
  357.6000    62.4329    11.5984    12.0869    12.4361   -58.2701
  357.7000    62.4342    11.5994    12.0980    12.4365   -58.2701
  357.8000    62.4356    11.6004    12.2579    12.4815   -58.2701
  357.9000    62.4371    11.6014    12.2580    12.5247   -58.3513
  358.0000    62.4384    11.6023    12.3065    12.5404   -58.4775
  358.1000    62.5683    11.6033    12.3446    12.6135   -58.5736
  358.2000    62.8490    11.6043    12.3448    12.6141   -58.5782
  358.3000    63.1784    11.6188    12.3450    12.6735   -58.7253
  358.4000    63.4057    11.6875    12.3452    12.7035   -58.7253
  358.5000    64.2719    11.6885    12.4078    12.7040   -58.7253
  358.6000    64.7616    11.6894    12.4323    12.7046   -58.7795
  358.7000    65.2075    11.6904    12.4325    12.7051   -58.8771
  358.8000    65.7584    11.6643    12.4139    12.7056   -58.8801
  358.9000    66.5642    11.6111    12.3460    12.6482   -59.0288
  359.0000    67.5054    11.6120    12.3462    12.5755   -59.1325
  359.1000    68.3897    11.6132    12.3463    12.5310   -59.1806
  359.2000    69.0241    11.6682    12.3465    12.5185   -59.2332
  359.3000    69.5445    11.6963    12.3467    12.4448   -59.3323
  359.4000    69.8442    11.6973    12.3469    12.4454   -59.3323
  359.5000    70.0350    11.7119    12.3436    12.4459   -59.3323
  359.6000    70.2228    11.7811    12.2610    12.4464   -59.3323
  359.7000    70.2245    11.7821    12.2611    12.4469   -59.3323
  359.8000    70.0719    11.8381    12.2613    12.4474   -59.3323
  359.9000    69.9986    11.8666    12.2615    12.4480   -59.3323
  360.0000    70.0000    11.8676    12.2617    12.4485   -59.3323
  360.1000    69.9641    11.8686    12.2591    12.4490   -59.3323
  360.2000    69.7744    11.8696    12.1764    12.4495   -59.3323
  360.3000    69.7758    11.8706    12.1173    12.4500   -59.3323
  360.4000    69.6280    11.8716    12.0916    12.4506   -59.3323
  360.5000    69.3296    11.8726    12.0614    12.4511   -59.3323
  360.6000    69.0235    11.8736    12.0075    12.4516   -59.3323
  360.7000    68.8026    11.8884    12.0077    12.4521   -59.3323
  360.8000    68.4128    11.9587    12.0079    12.4920   -59.3323
  360.9000    68.2307    11.8768    12.0080    12.5404   -59.3323
  361.0000    68.0426    11.8776    12.0082    12.5410   -59.2843
  361.1000    67.9603    11.8785    12.0084    12.5415   -59.1581
  361.2000    67.9616    11.8520    12.0085    12.5420   -59.0288
  361.3000    67.9630    11.7843    12.0073    12.5425   -58.9057
  361.4000    67.9645    11.7169    11.9250    12.5431   -58.8771
  361.5000    67.9658    11.6366    11.9251    12.5436   -58.8050
  361.6000    67.9671    11.6374    11.9253    12.5441   -58.7253
  361.7000    67.9685    11.6383    11.9255    12.5447   -58.7253
  361.8000    67.9075    11.6393    11.9256    12.5452   -58.7253
  361.9000    67.6957    11.6403    11.9265    12.5457   -58.7253
  362.0000    67.2878    11.6413    12.0099    12.5462   -58.7253
  362.1000    66.9405    11.6424    12.0100    12.5242   -58.6548
  362.2000    66.5628    11.6432    12.0528    12.4599   -58.5736
  362.3000    66.2819    11.6442    12.0949    12.4605   -58.5541
  362.4000    66.1516    11.6452    12.0950    12.4610   -58.4218
  362.5000    66.1530    11.6461    12.0952    12.4109   -58.4218
  362.6000    66.1545    11.6471    12.1661    12.3753   -58.3272
  362.7000    65.9860    11.7160    12.1806    12.3547   -58.2701
  362.8000    65.9288    11.7306    12.1808    12.2836   -58.2266
  362.9000    66.0222    11.7727    12.1530    12.2053   -58.1184
  363.0000    66.2131    11.8147    12.0960    12.1429   -58.1184
  363.1000    66.4184    11.8157    12.0962    12.1213   -58.1184
  363.2000    66.8477    11.8167    12.0964    12.0879   -58.0253
  363.3000    67.0140    11.8177    12.0966    12.0380   -57.9666
  363.4000    67.0785    11.8187    12.0555    12.0385   -57.9246
  363.5000    67.1675    11.8197    12.0124    12.0391   -57.7984
  363.6000    67.3096    11.7933    12.0126    12.0395   -57.6631
  363.7000    67.3011    11.7395    12.0127    11.9931   -57.6631
  363.8000    67.0842    11.7404    11.9444    11.9567   -57.5716
  363.9000    67.0854    11.7416    11.8752    11.9387   -57.5114
  364.0000    66.9650    11.7424    11.8063    11.8745   -57.5114
  364.1000    66.8598    11.7434    11.7378    11.8751   -57.5114
  364.2000    67.0897    11.7172    11.6814    11.9351   -57.5114
  364.3000    67.0909    11.6637    11.6816    11.9592   -57.3958
  364.4000    67.0922    11.6647    11.6818    11.9915   -57.3596
  364.5000    67.0936    11.6658    11.6819    12.0440   -57.2951
  364.6000    67.0950    11.6125    11.6821    12.0445   -57.2079
  364.7000    67.0963    11.5865    11.6574    12.0451   -57.1945
  364.8000    67.0980    11.5606    11.6008    12.0456   -57.0562
  364.9000    67.0991    11.4945    11.6010    12.0461   -57.0562
  365.0000    67.2146    11.4288    11.6011    12.0466   -57.0562
  365.1000    67.4808    11.3504    11.6013    12.0471   -57.0562
  365.2000    67.8612    11.3512    11.6015    12.0476   -57.0562
  365.3000    68.2461    11.3522    11.6016    12.0482   -57.0562
  365.4000    68.6219    11.3531    11.6018    12.0486   -57.0562
  365.5000    69.0023    11.3541    11.6020    12.0491   -57.0562
  365.6000    69.2731    11.3550    11.6021    12.0496   -57.0562
  365.7000    69.4640    11.3560    11.6023    12.0501   -56.9947
  365.8000    69.6548    11.3569    11.6024    12.0506   -56.9044
  365.9000    69.8526    11.3184    11.6026    12.0512   -56.9044
