~VERSION INFORMATION
 VERS.                2.0:   CWLS LOG ASCII STANDARD - VERSION 2.0
 WRAP.                 NO:   ONE LINE PER DEPTH STEP
~WELL INFORMATION
#MNEM.UNIT      DATA TYPE    INFORMATION
#----------   ------------   ------------------------------
 STRT.F            0.0000:   START DEPTH
 STOP.F          540.0000:   STOP DEPTH
 STEP.F            0.1000:   STEP LENGTH
 NULL.          -999.2500:   NO VALUE
 COMP.       F D SERV INC:   COMPANY
 WELL.      77-1 X3 #77-3:   WELL
 FLD .             TEAPOT:   FIELD
 LOC .       S3 T38N R78W:   LOCATION
 CNTY.            NATRONA:   COUNTY
 STAT.            WYOMING:   STATE
 CTRY. UNITED STATES OF AMERICA:   COUNTRY
 SRVC.     Atlas Wireline:   SERVICE COMPANY
 DATE.        20-DEC-1991:   LOGDATE
 API .       490252249300:   API NUMBER
~CURVE INFORMATION
#MNEM.UNIT       API CODE    CURVE DESCRIPTION
#----------   ------------   ------------------------------
 DEPT.F                  :   
 GRR .GAPI   07 310 01 00:   GAMMA RAY
 RFOC.OHMM   07 270 04 00:   RESISTIVITY FOCUSED LOG
 RILD.OHMM   07 120 46 00:   INDUCTION LOG DEEP RESISTIVITY
 RILM.OHMM   07 120 44 00:   INDUCTION LOG MEDIUM RESISTIVITY
 SPR .MV     07 010 01 00:   SPONTANEOUS POTENTIAL
~PARAMETER INFORMATION
#MNEM.UNIT          VALUE    DESCRIPTION
#----------   ------------   ------------------------------
 PD  .                 GL:   PERMANENT DATUM
 EPD .F              5161:   ELEVATION PERMANENT DATUM
 LMF .                 KB:   LOG MEASURED FROM
 DAPD.F                10:   FEET ABOVE PERMANENT DATUM
 DMF .                 KB:   DRILLING MEASURED FROM
 EKB .F              5171:   KELLING BUSHING
 EGL .F              5161:   GROUND LEVEL
 DATE.        20-DEC-1991:   RUN DATE
 RUN .                  1:   RUN NUMBER
 DD  .F               545:   DEPTH DRILLER
 DL  .F               543:   DEPTH LOGGER
 BLI .F               540:   BOTTOM LOG INTERVAL
 CS  .IN            8.625:   CASING SIZE
 CBD .F               175:   CASING BOTTOM DRILLER
 CBL .F               172:   CASING BOTTOM LOGGER
 BS  .IN            7.875:   BIT SIZE
 BSD .F               545:   BIT SIZE AT DEPTH
 DFT .           CHEM GEL:   DRILLING FLUID TYPE
 DFD .               16.8:   DRILLING FLUID DENSITY
 DFV .                 53:   DRILLING FLUID VISCOSITY
 DFPH.                  9:   DRILLING FLUID PH
 DFL .                  8:   DRILLING FLUID LOSS
 MSS .           FLOWLINE:   MUD SAMPLE SOURCE
 RMS .OHMM           1.55:   RESISTIVITY MUD SAMPLE
 MST .F                58:   MUD SAMPLE TEMPERATURE
 RMF .OHMM           1.16:   RESISTIVITY MUD FILTRATE SAMPLE
 MFST.F                58:   MUD FILTRATE SAMPLE TEMPERATURE
 RMC .OHMM           1.93:   RESISTIVITY MUD CAKE
 MCST.F                58:   MUD CAKE SAMPLE TEMPERATURE
 MFSS.               CALC:   MUD FILTRATE SAMPLE SOURCE
 MCSS.               CALC:   MUD CAKE SAMPLE SOURCE
 TCS .HRS               2:   TIME CURCULATED STOPPED
 MRT .F               100:   MAXIMUM RECORDED TEMPERATURE
 LUN .            HL 6307:   LOGGING UNIT NUMBER
 LUL .             CASPER:   LOGGING UNIT LOCATION
 ENGI.            WADDELL:   RECORDING ENGINEER
 WITN.             STRONG:   WITNESSED BY
 CLNT.            A2DTECH:   CLIENT CODE
 ORIG.           5" PRINT:   ORIGIN OF DATA
 UWI .       490252249300:   UNIQUE WELL ID
 DICO. A2D Technologies, Inc.:   DIGITIZING COMPANY
~OTHER INFORMATION
~A    DEPT      GRR      RFOC       RILD       RILM        SPR   
# ...
  219.6000    82.7872     4.0788     2.7821     3.0895    32.0777
  219.7000    83.1350     4.0634     2.8216     3.1990    32.0780
  219.8000    83.3793     4.0513     2.8883     3.3211    32.0783
  219.9000    83.4708     4.0453     2.9593     3.3936    32.0786
  220.0000    83.5312     4.0240     3.0611     3.4737    31.9676
  220.1000    83.7444     4.0246     3.1706     3.5234    31.9275
  220.2000    84.1543     4.0250     3.2839     3.5442    31.9278
  220.3000    84.1539     4.0416     3.3936     3.5674    31.9281
  220.4000    84.2916     4.0773     3.4941     3.6132    31.9284
  220.5000    84.3813     4.1398     3.6013     3.6909    31.9287
  220.6000    84.3808     4.2426     3.6837     3.7937    31.3220
  220.7000    84.3804     4.4097     3.7710     3.8942    31.3223
  220.8000    84.3799     4.6987     3.8603     3.9859    31.3226
  220.9000    84.5572     5.0620     3.9431     4.0797    31.3229
  221.0000    84.6073     5.3622     4.0128     4.1859    31.3232
  221.1000    84.5046     5.5961     4.0860     4.2745    31.3235
  221.2000    84.3781     5.8513     4.1326     4.3754    31.3238
  221.3000    84.3508     6.0403     4.2003     4.4786    31.3242
  221.4000    84.1488     6.1382     4.2747     4.5841    31.3244
  221.5000    83.7892     6.1694     4.3893     4.6896    31.3247
  221.6000    83.5495     6.1701     4.5674     4.7822    31.3825
  221.7000    83.3585     6.1708     4.7343     4.8568    31.4771
  221.8000    83.2338     6.1715     4.7887     4.9035    31.4774
  221.9000    83.2333     6.1722     4.8672     4.9462    31.4777
  222.0000    83.2329     6.1728     4.9534     5.0044    31.4780
  222.1000    83.4138     6.1735     5.0524     5.0611    31.4783
  222.2000    83.4603     6.1742     5.1663     5.0950    31.4786
  222.3000    83.5658     6.1749     5.2597     5.1470    31.4789
  222.4000    83.8241     6.1707     5.3203     5.1874    31.4792
  222.5000    84.1743     6.1334     5.4077     5.2181    31.4796
  222.6000    84.3717     6.1340     5.4847     5.2410    31.4798
  222.7000    84.7377     6.1347     5.5493     5.2448    31.4801
  222.8000    84.9729     6.1159     5.6085     5.3157    31.4254
  222.9000    85.0553     6.0811     5.6420     5.3160    31.3290
  223.0000    85.0548     6.0464     5.7074     5.3366    31.3293
  223.1000    85.0543     6.0103     5.7747     5.3542    31.3296
  223.2000    85.0539     6.0110     5.8226     5.3546    31.3299
  223.3000    85.0534     6.0116     5.8568     5.3564    31.2509
  223.4000    85.0530     6.0123     5.8848     5.3931    31.1249
  223.5000    85.0525     6.0130     5.8849     5.4464    31.0273
  223.6000    85.0521     6.0079     5.8849     5.4698    31.0248
  223.7000    85.0857     5.9725     5.8850     5.4703    30.8762
  223.8000    85.2794     5.9732     5.8649     5.4781    30.8765
  223.9000    85.4659     5.9738     5.8441     5.5095    30.8768
  224.0000    85.6560     5.9745     5.8442     5.5101    30.8245
  224.1000    85.9575     5.9621     5.8442     5.5105    30.7256
  224.2000    86.4119     5.9342     5.8443     5.5109    30.7259
  224.3000    87.0191     5.9350     5.8444     5.5114    30.7263
  224.4000    87.7881     5.9356     5.8445     5.5118    30.7266
  224.5000    89.4863     5.9636     5.8446     5.5123    30.7269
  224.6000    89.9930     5.9785     5.8380     5.5129    30.7272
  224.7000    90.4096     5.9792     5.8039     5.5132    30.7275
  224.8000    90.8298     5.9867     5.8040     5.5137    30.7278
  224.9000    91.0577     6.0224     5.7771     5.5142    30.7281
  225.0000    91.4384     6.0232     5.7435     5.5082    30.7284
  225.1000    91.4378     6.0519     5.7101     5.4767    30.7287
  225.2000    91.4374     6.0880     5.6769     5.4772    30.7290
  225.3000    91.3219     6.1243     5.6438     5.4524    30.7046
  225.4000    91.0536     6.1608     5.6046     5.4213    30.5778
  225.5000    90.6324     6.1979     5.5524     5.3904    30.5781
  225.6000    90.0603     6.2849     5.5073     5.3596    30.5784
  225.7000    89.3803     6.3154     5.4752     5.3285    30.5788
  225.8000    88.9160     6.3531     5.4304     5.2387    30.5791
  225.9000    88.2269     6.4067     5.3361     5.1488    30.5794
  226.0000    87.5434     6.4740     5.2624     5.0436    30.5797
  226.1000    87.0954     6.5126     5.2131     4.9282    30.5800
  226.2000    87.0950     6.5580     5.1164     4.8200    30.5803
  226.3000    87.0944     6.5586     4.9982     4.7345    30.5806
  226.4000    87.0941     6.5836     4.8826     4.6820    30.5809
  226.5000    87.2123     6.6060     4.7695     4.6489    30.6034
  226.6000    87.6454     6.5976     4.6390     4.5925    30.7332
  226.7000    88.5369     6.5615     4.5736     4.5229    30.7335
  226.8000    89.8593     6.5624     4.5102     4.4630    30.7338
  226.9000    90.9730     6.5308     4.4472     4.3561    30.7341
  227.0000    91.6058     6.4693     4.3753     4.1916    30.7810
  227.1000    92.2470     6.3951     4.3244     4.0253    30.8865
  227.2000    92.8183     6.3124     4.2651     3.8896    30.8868
  227.3000    93.2994     6.1959     4.2449     3.7785    30.8871
  227.4000    93.4822     5.9142     4.1900     3.6764    30.9837
  227.5000    93.4817     5.6291     4.1372     3.6094    31.0395
  227.6000    93.4813     5.0834     4.1027     3.6097    31.1304
  227.7000    93.4808     4.6327     4.0318     3.5946    31.3436
  227.8000    93.4804     4.4350     3.9767     3.5852    31.3439
  227.9000    93.4799     4.2826     3.9388     3.5786    31.4647
  228.0000    93.4703     4.1173     3.8931     3.5608    31.4962
  228.1000    93.2506     4.0761     3.8479     3.5861    31.5661
  228.2000    92.9263     4.0452     3.8132     3.5864    31.6927
  228.3000    92.5448     4.0333     3.8126     3.6018    31.8192
  228.4000    92.0768     4.0404     3.7866     3.6231    31.9527
  228.5000    91.2610     4.0624     3.7684     3.6378    31.9530
  228.6000    89.6920     4.0630     3.7603     3.6405    32.0471
  228.7000    87.0835     4.1056     3.7509     3.6639    32.1053
  228.8000    86.2642     4.1711     3.7341     3.7032    32.1056
  228.9000    85.1849     4.2452     3.7342     3.7313    32.1233
  229.0000    84.2177     4.3205     3.7342     3.7424    32.2580
  229.1000    83.5055     4.3996     3.7343     3.7559    32.2583
  229.2000    82.9077     4.5143     3.7343     3.7978    32.3512
  229.3000    81.8296     4.6600     3.7344     3.8226    32.4778
  229.4000    81.6636     4.7866     3.7344     3.8428    32.5627
  229.5000    81.4726     4.8564     3.7345     3.8500    32.5792
  229.6000    81.2816     4.8942     3.7346     3.8503    32.7150
  229.7000    81.1429     4.9488     3.7529     3.8571    32.7153
  229.8000    81.1425     4.9808     3.7750     3.8818    32.7156
  229.9000    81.1420     4.9813     3.7874     3.9328    32.7819
  230.0000    81.3090     4.9819     3.7928     3.9331    32.8680
  230.1000    81.6287     4.9824     3.8151     3.9490    32.8833
  230.2000    82.1014     4.9736     3.8411     3.9613    33.0204
  230.3000    82.5642     4.9488     3.8792     3.9680    33.1364
  230.4000    82.7872     4.9495     3.9101     3.9914    33.1727
  230.5000    83.4223     4.8967     3.9229     4.0181    33.2377
  230.6000    83.4219     4.8820     3.9229     4.0387    33.3250
  230.7000    83.4215     4.9287     3.9240     4.0626    33.3253
  230.8000    83.4210     5.0262     3.9506     4.0866    33.3257
  230.9000    83.4205     5.1495     3.9703     4.1169    33.4405
  231.0000    83.4201     5.3107     3.9936     4.1639    33.4780
  231.1000    83.4196     5.4600     4.0171     4.1921    33.4783
  231.2000    83.5903     5.5976     4.0466     4.1924    33.5166
  231.3000    83.7804     5.7117     4.0942     4.2087    33.6307
  231.4000    84.0660     5.8131     4.1496     4.2446    33.6310
  231.5000    84.5046     5.9053     4.1704     4.2884    33.7446
  231.6000    85.0759     5.9419     4.2273     4.3137    33.7833
  231.7000    85.7000     5.9759     4.3021     4.3433    33.7836
