~VERSION INFORMATION
 VERS.                2.0:   CWLS LOG ASCII STANDARD - VERSION 2.0
 WRAP.                 NO:   ONE LINE PER DEPTH STEP
~WELL INFORMATION
#MNEM.UNIT      DATA TYPE    INFORMATION
#----------   ------------   ------------------------------
 STRT.F            0.0000:   START DEPTH
 STOP.F          540.0000:   STOP DEPTH
 STEP.F            0.1000:   STEP LENGTH
 NULL.          -999.2500:   NO VALUE
 COMP.       F D SERV INC:   COMPANY
 WELL.      77-1 X3 #77-3:   WELL
 FLD .             TEAPOT:   FIELD
 LOC .       S3 T38N R78W:   LOCATION
 CNTY.            NATRONA:   COUNTY
 STAT.            WYOMING:   STATE
 CTRY. UNITED STATES OF AMERICA:   COUNTRY
 SRVC.     Atlas Wireline:   SERVICE COMPANY
 DATE.        20-DEC-1991:   LOGDATE
 API .       490252249300:   API NUMBER
~CURVE INFORMATION
#MNEM.UNIT       API CODE    CURVE DESCRIPTION
#----------   ------------   ------------------------------
 DEPT.F                  :   
 GRR .GAPI   07 310 01 00:   GAMMA RAY
 RFOC.OHMM   07 270 04 00:   RESISTIVITY FOCUSED LOG
 RILD.OHMM   07 120 46 00:   INDUCTION LOG DEEP RESISTIVITY
 RILM.OHMM   07 120 44 00:   INDUCTION LOG MEDIUM RESISTIVITY
 SPR .MV     07 010 01 00:   SPONTANEOUS POTENTIAL
~PARAMETER INFORMATION
#MNEM.UNIT          VALUE    DESCRIPTION
#----------   ------------   ------------------------------
 PD  .                 GL:   PERMANENT DATUM
 EPD .F              5161:   ELEVATION PERMANENT DATUM
 LMF .                 KB:   LOG MEASURED FROM
 DAPD.F                10:   FEET ABOVE PERMANENT DATUM
 DMF .                 KB:   DRILLING MEASURED FROM
 EKB .F              5171:   KELLING BUSHING
 EGL .F              5161:   GROUND LEVEL
 DATE.        20-DEC-1991:   RUN DATE
 RUN .                  1:   RUN NUMBER
 DD  .F               545:   DEPTH DRILLER
 DL  .F               543:   DEPTH LOGGER
 BLI .F               540:   BOTTOM LOG INTERVAL
 CS  .IN            8.625:   CASING SIZE
 CBD .F               175:   CASING BOTTOM DRILLER
 CBL .F               172:   CASING BOTTOM LOGGER
 BS  .IN            7.875:   BIT SIZE
 BSD .F               545:   BIT SIZE AT DEPTH
 DFT .           CHEM GEL:   DRILLING FLUID TYPE
 DFD .               16.8:   DRILLING FLUID DENSITY
 DFV .                 53:   DRILLING FLUID VISCOSITY
 DFPH.                  9:   DRILLING FLUID PH
 DFL .                  8:   DRILLING FLUID LOSS
 MSS .           FLOWLINE:   MUD SAMPLE SOURCE
 RMS .OHMM           1.55:   RESISTIVITY MUD SAMPLE
 MST .F                58:   MUD SAMPLE TEMPERATURE
 RMF .OHMM           1.16:   RESISTIVITY MUD FILTRATE SAMPLE
 MFST.F                58:   MUD FILTRATE SAMPLE TEMPERATURE
 RMC .OHMM           1.93:   RESISTIVITY MUD CAKE
 MCST.F                58:   MUD CAKE SAMPLE TEMPERATURE
 MFSS.               CALC:   MUD FILTRATE SAMPLE SOURCE
 MCSS.               CALC:   MUD CAKE SAMPLE SOURCE
 TCS .HRS               2:   TIME CURCULATED STOPPED
 MRT .F               100:   MAXIMUM RECORDED TEMPERATURE
 LUN .            HL 6307:   LOGGING UNIT NUMBER
 LUL .             CASPER:   LOGGING UNIT LOCATION
 ENGI.            WADDELL:   RECORDING ENGINEER
 WITN.             STRONG:   WITNESSED BY
 CLNT.            A2DTECH:   CLIENT CODE
 ORIG.           5" PRINT:   ORIGIN OF DATA
 UWI .       490252249300:   UNIQUE WELL ID
 DICO. A2D Technologies, Inc.:   DIGITIZING COMPANY
~OTHER INFORMATION
~A    DEPT      GRR      RFOC       RILD       RILM        SPR   
# ...
  195.2000    84.7531     6.6986     5.9708     6.3599    19.9077
  195.3000    85.3738     6.6648     6.0258     6.3721    19.9514
  195.4000    86.0311     6.6534     6.0837     6.4097    20.0955
  195.5000    86.5373     6.6351     6.1195     6.4511    20.3611
  195.6000    86.9461     6.6199     6.1567     6.4857    20.5985
  195.7000    87.5536     6.6556     6.2267     6.4973    20.9433
  195.8000    88.0895     6.6564     6.2718     6.4978    21.6588
  195.9000    88.3829     6.6571     6.3087     6.5097    22.7504
  196.0000    88.6758     6.6578     6.3595     6.5445    23.9616
  196.1000    88.9960     6.6390     6.4216     6.5451    24.9098
  196.2000    89.1884     6.6130     6.4217     6.5796    25.7251
  196.3000    89.3966     6.6095     6.4583     6.5920    26.4251
  196.4000    89.3991     6.5686     6.4670     6.6113    26.8593
  196.5000    89.4018     6.5692     6.4888     6.6503    27.0713
  196.6000    89.4046     6.5700     6.5127     6.6864    27.1831
  196.7000    89.3492     6.5707     6.5194     6.6870    27.1823
  196.8000    89.1815     6.5714     6.5587     6.7217    27.1818
  196.9000    89.1848     6.5722     6.5588     6.7349    27.0928
  197.0000    89.0167     6.5730     6.5887     6.7355    27.0288
  197.1000    88.8298     6.6093     6.6051     6.7360    26.9912
  197.2000    88.7361     6.6204     6.6052     6.7393    26.8646
  197.3000    88.7388     6.6418     6.6122     6.7845    26.7234
  197.4000    88.7416     6.6682     6.6518     6.7850    26.7229
  197.5000    88.7446     6.6744     6.6519     6.7855    26.6363
  197.6000    88.7470     6.7165     6.6370     6.7861    26.5700
  197.7000    88.7498     6.7172     6.6179     6.7968    26.5694
  197.8000    88.6630     6.7472     6.5987     6.8348    26.5598
  197.9000    88.3745     6.8093     6.5796     6.8354    26.4163
  198.0000    87.8082     6.8616     6.5604     6.8698    26.3065
  198.1000    87.1629     6.8685     6.5413     6.8844    26.1799
  198.2000    86.6758     6.9112     6.5221     6.8850    26.0532
  198.3000    86.3586     6.9119     6.5366     6.8856    25.9587
  198.4000    86.0859     6.9127     6.5750     6.8861    25.9517
  198.5000    85.8036     6.9362     6.6137     6.8868    25.8057
  198.6000    85.8064     6.9627     6.6530     6.9208    25.8052
  198.7000    85.8096     6.9703     6.6531     6.9361    25.6423
  198.8000    85.8119     7.0130     6.6531     6.9367    25.4450
  198.9000    85.8146     7.0536     6.6763     6.9373    25.3481
  199.0000    85.8995     7.0637     6.7001     6.9379    25.3434
  199.1000    86.1790     7.0645     6.7078     6.9386    25.1950
  199.2000    86.7507     7.0652     6.7474     6.9390    25.0901
  199.3000    87.4242     7.0660     6.7475     6.9646    24.9635
  199.4000    88.2058     7.0668     6.7791     6.9888    24.8368
  199.5000    89.3911     7.0676     6.7952     6.9894    24.7375
  199.6000    90.6429     7.0684     6.7953     6.9900    24.7369
  199.7000    91.7038     7.0692     6.7954     6.9907    24.7361
  199.8000    92.4615     7.0700     6.7955     6.9912    24.7357
  199.9000    92.6919     7.0708     6.7956     6.9918    24.7351
  200.0000    92.8463     7.0716     6.8275     6.9924    24.7344
  200.1000    92.8116     7.0725     6.8436     6.9929    24.7338
  200.2000    92.6247     7.1063     6.8437     6.9935    24.7332
  200.3000    92.4377     7.1235     6.8438     6.9941    24.7326
  200.4000    92.2484     7.1242     6.8439     7.0270    24.7320
  200.5000    91.6895     7.1250     6.8440     7.0443    24.7314
  200.6000    90.5291     7.1258     6.8440     7.0608    24.7308
  200.7000    88.9845     7.1268     6.8441     7.0949    24.7302
  200.8000    87.4940     7.1615     6.8442     7.0955    24.7296
  200.9000    86.4241     7.2042     6.8443     7.0960    24.8518
  201.0000    85.6439     7.2471     6.8444     7.0966    24.8801
  201.1000    85.0958     7.2903     6.8445     7.0972    24.8795
  201.2000    84.5297     7.3324     6.8446     7.0978    24.9246
  201.3000    84.1760     7.3334     6.8447     7.0984    25.0301
  201.4000    83.9215     7.3697     6.8448     7.0990    25.0294
  201.5000    83.5738     7.4413     6.8449     7.0996    25.0288
  201.6000    83.3773     7.4909     6.8450     7.1002    25.0282
  201.7000    83.2000     7.5023     6.8451     7.1008    25.0276
  201.8000    83.1543     7.5450     6.8452     7.1014    25.0270
  201.9000    83.3685     7.5460     6.8453     7.1020    25.0647
  202.0000    83.5525     7.5467     6.8454     7.1026    25.3475
  202.1000    83.5520     7.5762     6.8455     7.1032    25.3478
  202.2000    83.5516     7.6012     6.8456     7.1038    25.3481
  202.3000    83.6723     7.6134     6.8457     7.1044    25.3484
  202.4000    83.9458     7.6562     6.8786     7.1050    25.3487
  202.5000    84.2808     7.6571     6.8940     7.1056    25.3288
  202.6000    84.4788     7.6964     6.8941     7.1062    25.1976
  202.7000    84.9191     7.7124     6.8942     7.1068    25.1979
  202.8000    85.7224     7.7132     6.8943     7.1074    25.1982
  202.9000    86.7977     7.7141     6.8944     7.1079    25.1985
  203.0000    88.0259     7.7149     6.8945     7.1085    25.1543
  203.1000    89.2169     7.7159     6.9199     7.1091    25.0283
  203.2000    89.9592     7.7167     6.9432     7.1098    24.8959
  203.3000    90.3958     7.7175     6.9433     7.1103    24.8962
  203.4000    90.7206     7.7184     6.9434     7.1109    24.8022
  203.5000    90.8516     7.7193     6.9435     7.1115    24.7451
  203.6000    90.8511     7.7201     6.9436     7.1251    24.7454
  203.7000    90.8014     7.7211     6.9437     7.1626    24.7457
  203.8000    90.6219     7.7218     6.9438     7.1632    24.7460
  203.9000    90.6214     7.7227     6.9533     7.1638    24.7463
  204.0000    90.2922     7.7236     6.9928     7.1644    24.7466
  204.1000    90.0373     7.7244     6.9441     7.1650    24.7469
  204.2000    89.9352     7.7298     6.9442     7.1656    24.7472
  204.3000    89.8836     7.7803     6.9443     7.1662    24.7475
  204.4000    89.6792     7.7811     6.9444     7.1668    24.7478
  204.5000    89.2488     7.7820     6.9445     7.1674    24.6308
  204.6000    89.0822     7.8060     6.9446     7.1680    24.5967
  204.7000    88.8912     7.8525     6.9447     7.1686    24.5970
  204.8000    88.7001     7.8993     6.9789     7.1692    24.5564
  204.9000    88.4562     7.9502     6.9937     7.1698    24.4458
  205.0000    88.0745     7.9510     6.9938     7.1704    24.4462
  205.1000    87.6479     7.9519     6.9939     7.1710    24.3303
  205.2000    87.3114     7.9528     6.9940     7.1716    24.2950
  205.3000    86.6693     7.9537     6.9941     7.1722    24.2302
  205.4000    85.9066     7.9546     6.9942     7.1728    24.1439
  205.5000    85.1986     7.9555     6.9943     7.1734    24.1442
  205.6000    84.6265     7.9564     6.9944     7.1740    24.1445
  205.7000    83.9922     7.9573     6.9945     7.1746    24.1448
  205.8000    82.9726     7.9581     6.9946     7.1752    24.1451
  205.9000    82.0930     7.9590     6.9947     7.1567    24.1454
  206.0000    81.6134     7.9599     6.9948     7.1264    24.1457
  206.1000    81.3091     7.9609     6.9949     7.1270    24.1460
  206.2000    80.7936     7.9179     6.9767     7.1277    24.1463
  206.3000    80.7931     7.8728     6.9462     7.1282    24.1466
  206.4000    80.7927     7.8279     6.9463     7.1288    24.1469
  206.5000    80.9262     7.7833     6.9464     7.1294    24.1472
  206.6000    81.2125     7.7389     6.9812     7.1300    24.1475
  206.7000    81.5347     7.6930     6.9955     7.1306    24.1478
  206.8000    81.7663     7.6083     6.9956     7.1313    24.1481
  206.9000    82.3885     7.5881     6.9957     7.1318    24.1484
  207.0000    84.4704     7.5640     6.9958     7.1324    24.1487
  207.1000    86.6208     7.5370     6.9959     7.1330    24.1490
  207.2000    88.1284     7.5228     6.9610     7.1242    24.1493
  207.3000    88.9603     7.4343     6.9472     7.0835    24.1496
