~VERSION INFORMATION
 VERS.                2.0:   CWLS LOG ASCII STANDARD - VERSION 2.0
 WRAP.                 NO:   ONE LINE PER DEPTH STEP
~WELL INFORMATION
#MNEM.UNIT      DATA TYPE    INFORMATION
#----------   ------------   ------------------------------
 STRT.F            0.0000:   START DEPTH
 STOP.F          540.0000:   STOP DEPTH
 STEP.F            0.1000:   STEP LENGTH
 NULL.          -999.2500:   NO VALUE
 COMP.       F D SERV INC:   COMPANY
 WELL.      77-1 X3 #77-3:   WELL
 FLD .             TEAPOT:   FIELD
 LOC .       S3 T38N R78W:   LOCATION
 CNTY.            NATRONA:   COUNTY
 STAT.            WYOMING:   STATE
 CTRY. UNITED STATES OF AMERICA:   COUNTRY
 SRVC.     Atlas Wireline:   SERVICE COMPANY
 DATE.        20-DEC-1991:   LOGDATE
 API .       490252249300:   API NUMBER
~CURVE INFORMATION
#MNEM.UNIT       API CODE    CURVE DESCRIPTION
#----------   ------------   ------------------------------
 DEPT.F                  :   
 GRR .GAPI   07 310 01 00:   GAMMA RAY
 RFOC.OHMM   07 270 04 00:   RESISTIVITY FOCUSED LOG
 RILD.OHMM   07 120 46 00:   INDUCTION LOG DEEP RESISTIVITY
 RILM.OHMM   07 120 44 00:   INDUCTION LOG MEDIUM RESISTIVITY
 SPR .MV     07 010 01 00:   SPONTANEOUS POTENTIAL
~PARAMETER INFORMATION
#MNEM.UNIT          VALUE    DESCRIPTION
#----------   ------------   ------------------------------
 PD  .                 GL:   PERMANENT DATUM
 EPD .F              5161:   ELEVATION PERMANENT DATUM
 LMF .                 KB:   LOG MEASURED FROM
 DAPD.F                10:   FEET ABOVE PERMANENT DATUM
 DMF .                 KB:   DRILLING MEASURED FROM
 EKB .F              5171:   KELLING BUSHING
 EGL .F              5161:   GROUND LEVEL
 DATE.        20-DEC-1991:   RUN DATE
 RUN .                  1:   RUN NUMBER
 DD  .F               545:   DEPTH DRILLER
 DL  .F               543:   DEPTH LOGGER
 BLI .F               540:   BOTTOM LOG INTERVAL
 CS  .IN            8.625:   CASING SIZE
 CBD .F               175:   CASING BOTTOM DRILLER
 CBL .F               172:   CASING BOTTOM LOGGER
 BS  .IN            7.875:   BIT SIZE
 BSD .F               545:   BIT SIZE AT DEPTH
 DFT .           CHEM GEL:   DRILLING FLUID TYPE
 DFD .               16.8:   DRILLING FLUID DENSITY
 DFV .                 53:   DRILLING FLUID VISCOSITY
 DFPH.                  9:   DRILLING FLUID PH
 DFL .                  8:   DRILLING FLUID LOSS
 MSS .           FLOWLINE:   MUD SAMPLE SOURCE
 RMS .OHMM           1.55:   RESISTIVITY MUD SAMPLE
 MST .F                58:   MUD SAMPLE TEMPERATURE
 RMF .OHMM           1.16:   RESISTIVITY MUD FILTRATE SAMPLE
 MFST.F                58:   MUD FILTRATE SAMPLE TEMPERATURE
 RMC .OHMM           1.93:   RESISTIVITY MUD CAKE
 MCST.F                58:   MUD CAKE SAMPLE TEMPERATURE
 MFSS.               CALC:   MUD FILTRATE SAMPLE SOURCE
 MCSS.               CALC:   MUD CAKE SAMPLE SOURCE
 TCS .HRS               2:   TIME CURCULATED STOPPED
 MRT .F               100:   MAXIMUM RECORDED TEMPERATURE
 LUN .            HL 6307:   LOGGING UNIT NUMBER
 LUL .             CASPER:   LOGGING UNIT LOCATION
 ENGI.            WADDELL:   RECORDING ENGINEER
 WITN.             STRONG:   WITNESSED BY
 CLNT.            A2DTECH:   CLIENT CODE
 ORIG.           5" PRINT:   ORIGIN OF DATA
 UWI .       490252249300:   UNIQUE WELL ID
 DICO. A2D Technologies, Inc.:   DIGITIZING COMPANY
~OTHER INFORMATION
~A    DEPT      GRR      RFOC       RILD       RILM        SPR   
# ...
  244.0000    91.0106     6.1431     4.1279     3.5749    38.5999
  244.1000    91.3712     6.1080     4.0824     3.5098    38.7649
  244.2000    91.5790     6.0684     4.0527     3.4910    39.0161
  244.3000    91.9244     6.0085     4.0292     3.4711    39.3215
  244.4000    92.1699     5.9395     4.0140     3.4620    39.4707
  244.5000    92.3600     5.8243     4.0141     3.4556    39.8923
  244.6000    92.4904     5.6488     4.0141     3.4384    40.0047
  244.7000    92.4900     5.4525     4.0142     3.4629    40.2178
  244.8000    92.4895     5.2083     4.0143     3.4631    40.4706
  244.9000    92.8385     4.8785     4.0143     3.4780    40.6522
  245.0000    93.0822     4.5759     4.0144     3.4880    40.6626
  245.1000    93.2723     4.3644     4.0144     3.5078    40.8046
  245.2000    93.5854     4.2146     4.0145     3.5648    41.0266
  245.3000    94.1091     4.0738     4.0372     3.5877    41.1087
  245.4000    94.3132     3.9701     4.0428     3.6263    41.1090
  245.5000    95.0191     3.8893     4.0429     3.6690    41.1093
  245.6000    95.6420     3.8461     4.0429     3.7343    41.1096
  245.7000    96.3143     3.8352     4.0469     3.8154    41.1099
  245.8000    97.1395     3.8357     4.0715     3.8827    41.0005
  245.9000    97.9895     3.8361     4.0716     3.9582    40.8746
  246.0000    98.1917     3.8366     4.0899     4.0210    40.7486
  246.1000    98.1913     3.8573     4.1003     4.1088    40.6558
  246.2000    98.1909     3.8963     4.1093     4.2179    40.6561
  246.3000    98.0875     3.9425     4.1293     4.3349    40.6565
  246.4000    97.7011     4.0114     4.1293     4.4392    40.5483
  246.5000    96.8836     4.1539     4.1294     4.5856    40.5053
  246.6000    95.6776     4.5075     4.1481     4.6814    40.5056
  246.7000    94.7761     4.7839     4.1585     4.7919    40.5059
  246.8000    93.8228     5.0801     4.1586     4.8638    40.5062
  246.9000    92.7648     5.3687     4.1629     4.9004    40.5066
  247.0000    91.6880     5.6244     4.1880     4.9579    40.5068
  247.1000    90.8516     5.8201     4.1880     5.0239    40.5071
  247.2000    90.6520     6.0043     4.2072     5.0497    40.5074
  247.3000    90.2875     6.1711     4.2319     5.0993    40.5077
  247.4000    90.0502     6.3270     4.2568     5.1453    40.5080
  247.5000    89.8592     6.4564     4.2955     5.1679    40.5084
  247.6000    89.7370     6.5578     4.3990     5.1683    40.5086
  247.7000    89.7676     6.6353     4.5013     5.1688    40.5090
  247.8000    89.9644     6.7180     4.6080     5.1949    40.5093
  247.9000    89.9639     6.7559     4.7666     5.2455    40.5096
  248.0000    90.2557     6.7962     4.9427     5.3072    40.5099
  248.1000    90.5280     6.8367     5.0891     5.3774    40.5102
  248.2000    90.7181     6.8631     5.2419     5.4708    40.5105
  248.3000    90.9082     6.8703     5.4271     5.5454    40.5108
  248.4000    91.1032     6.9127     5.5692     5.6003    40.5111
  248.5000    91.2884     6.9135     5.6813     5.6874    40.5114
  248.6000    91.4785     6.9143     5.7686     5.7730    40.5117
  248.7000    91.8890     6.9150     5.8430     5.8488    40.5120
  248.8000    92.3154     6.9158     5.9473     5.9509    40.5123
  248.9000    92.5402     6.9096     5.9819     6.0332    40.5126
  249.0000    92.9269     6.8693     6.0451     6.0918    40.5129
  249.1000    93.3015     6.8700     6.1163     6.1861    40.5132
  249.2000    93.5324     6.8708     6.1740     6.2797    40.5135
  249.3000    93.8345     6.8483     6.2174     6.3535    40.5139
  249.4000    94.2895     6.8093     6.2909     6.4276    40.5141
  249.5000    94.9704     6.7777     6.2910     6.4728    40.5144
  249.6000    96.1205     6.7786     6.3204     6.4732    40.5147
  249.7000    99.7177     6.7403     6.3354     6.4967    40.5150
  249.8000   100.6091     6.7330     6.3355     6.5197    40.5153
  249.9000   100.7992     6.7337     6.3356     6.5202    40.5157
  250.0000   100.9132     6.7345     6.3356     6.5208    40.5159
  250.1000   100.8744     6.7352     6.3358     6.4836    40.4027
  250.2000   100.6840     6.7360     6.3358     6.5217    40.3642
  250.3000   100.6835     6.7369     6.3359     6.5221    40.3642
  250.4000   100.5297     6.7375     6.3360     6.5226    40.3152
  250.5000   100.1073     6.7382     6.3361     6.5610    40.2124
  250.6000    99.6131     6.7553     6.3362     6.5692    40.2124
  250.7000    99.0305     6.7955     6.3363     6.5925    40.2124
  250.8000    97.7059     6.8360     6.3364     6.6162    40.2124
  250.9000    97.0278     6.8840     6.3364     6.6166    40.1402
  251.0000    96.8722     6.9177     6.3365     6.6171    40.0607
  251.1000    96.6811     6.9844     6.3366     6.6558    40.0607
  251.2000    96.4901     7.0494     6.3367     6.6644    40.0607
  251.3000    96.3411     7.0914     6.3368     6.6648    40.1819
  251.4000    96.3406     7.1350     6.3369     6.6653    40.2124
  251.5000    96.3401     7.2334     6.3370     6.6658    40.2124
  251.6000    96.4968     7.2694     6.3524     6.6662    40.2124
  251.7000    96.8062     7.3128     6.3817     6.6667    40.2124
  251.8000    97.3501     7.3373     6.3818     6.6672    40.2124
  251.9000    98.0681     7.2851     6.3819     6.6676    40.3312
  252.0000    98.6332     7.2860     6.4433     6.6681    40.4573
  252.1000    99.0771     7.3256     6.4722     6.6686    40.5833
  252.2000    99.5534     7.3384     6.4723     6.6690    40.6677
  252.3000   100.1246     7.3391     6.4807     6.7077    40.6677
  252.4000   100.6125     7.3398     6.5180     6.7167    40.6677
  252.5000   100.9475     7.3405     6.5181     6.7172    40.6677
  252.6000   101.1376     7.3413     6.5182     6.7325    40.7583
  252.7000   101.3575     7.3420     6.5183     6.7652    40.8194
  252.8000   101.3571     7.3427     6.5184     6.7657    40.8194
  252.9000   101.2336     7.3434     6.5184     6.7661    40.8059
  253.0000   100.9574     7.3441     6.5185     6.7973    40.6677
  253.1000   100.5758     7.3448     6.5186     6.8145    40.6677
  253.2000   100.1845     7.3456     6.5187     6.8150    40.6677
  253.3000    99.5282     7.3463     6.5188     6.8154    40.6677
  253.4000    98.8776     7.3470     6.5189     6.8159    40.6677
  253.5000    98.2398     7.3477     6.5190     6.8164    40.6677
  253.6000    97.8417     7.3484     6.5191     6.8169    40.6317
  253.7000    97.7000     7.3491     6.5192     6.8173    40.5159
  253.8000    97.7574     7.3500     6.5193     6.8178    40.5159
  253.9000    98.8406     7.3506     6.5435     6.8183    40.5159
  254.0000    99.8264     7.3513     6.5653     6.8188    40.4310
  254.1000   100.8428     7.3520     6.5703     6.8192    40.3049
  254.2000   101.4396     7.3527     6.5915     6.8197    40.1789
  254.3000   102.1922     7.3534     6.6127     6.7978    40.0607
  254.4000   104.3580     7.3032     6.6338     6.7589    40.0607
  254.5000   105.0022     7.3037     6.6585     6.7265    40.0607
  254.6000   105.1680     7.3045     6.6586     6.7270    40.0607
  254.7000   105.3581     7.3227     6.6586     6.6899    40.0607
  254.8000   105.3668     7.3570     6.6418     6.6811    40.0295
  254.9000   105.0169     7.3578     6.6031     6.6816    39.9090
  255.0000   104.1326     7.3585     6.5662     6.6681    39.9090
  255.1000   101.5748     7.3934     6.5663     6.6360    39.9090
  255.2000   100.9023     7.4370     6.5343     6.6365    39.9090
  255.3000   100.4002     7.4641     6.5206     6.6370    39.9090
  255.4000    99.9260     7.4648     6.5207     6.6083    39.9090
  255.5000    99.3539     7.4655     6.5116     6.5705    39.9090
  255.6000    98.7137     7.4663     6.4754     6.5463    39.9090
  255.7000    97.2342     7.4670     6.4755     6.5409    39.9090
  255.8000    96.3844     7.4431     6.4755     6.5017    39.9090
  255.9000    95.9871     7.4165     6.4756     6.5021    39.9609
  256.0000    95.7720     7.4104     6.4757     6.5026    40.0607
  256.1000    95.7735     7.3664     6.4664     6.5030    40.0607
