~VERSION INFORMATION
 VERS.                2.0:   CWLS LOG ASCII STANDARD - VERSION 2.0
 WRAP.                 NO:   ONE LINE PER DEPTH STEP
~WELL INFORMATION
#MNEM.UNIT      DATA TYPE    INFORMATION
#----------   ------------   ------------------------------
 STRT.F            0.0000:   START DEPTH
 STOP.F          540.0000:   STOP DEPTH
 STEP.F            0.1000:   STEP LENGTH
 NULL.          -999.2500:   NO VALUE
 COMP.       F D SERV INC:   COMPANY
 WELL.      77-1 X3 #77-3:   WELL
 FLD .             TEAPOT:   FIELD
 LOC .       S3 T38N R78W:   LOCATION
 CNTY.            NATRONA:   COUNTY
 STAT.            WYOMING:   STATE
 CTRY. UNITED STATES OF AMERICA:   COUNTRY
 SRVC.     Atlas Wireline:   SERVICE COMPANY
 DATE.        20-DEC-1991:   LOGDATE
 API .       490252249300:   API NUMBER
~CURVE INFORMATION
#MNEM.UNIT       API CODE    CURVE DESCRIPTION
#----------   ------------   ------------------------------
 DEPT.F                  :   
 GRR .GAPI   07 310 01 00:   GAMMA RAY
 RFOC.OHMM   07 270 04 00:   RESISTIVITY FOCUSED LOG
 RILD.OHMM   07 120 46 00:   INDUCTION LOG DEEP RESISTIVITY
 RILM.OHMM   07 120 44 00:   INDUCTION LOG MEDIUM RESISTIVITY
 SPR .MV     07 010 01 00:   SPONTANEOUS POTENTIAL
~PARAMETER INFORMATION
#MNEM.UNIT          VALUE    DESCRIPTION
#----------   ------------   ------------------------------
 PD  .                 GL:   PERMANENT DATUM
 EPD .F              5161:   ELEVATION PERMANENT DATUM
 LMF .                 KB:   LOG MEASURED FROM
 DAPD.F                10:   FEET ABOVE PERMANENT DATUM
 DMF .                 KB:   DRILLING MEASURED FROM
 EKB .F              5171:   KELLING BUSHING
 EGL .F              5161:   GROUND LEVEL
 DATE.        20-DEC-1991:   RUN DATE
 RUN .                  1:   RUN NUMBER
 DD  .F               545:   DEPTH DRILLER
 DL  .F               543:   DEPTH LOGGER
 BLI .F               540:   BOTTOM LOG INTERVAL
 CS  .IN            8.625:   CASING SIZE
 CBD .F               175:   CASING BOTTOM DRILLER
 CBL .F               172:   CASING BOTTOM LOGGER
 BS  .IN            7.875:   BIT SIZE
 BSD .F               545:   BIT SIZE AT DEPTH
 DFT .           CHEM GEL:   DRILLING FLUID TYPE
 DFD .               16.8:   DRILLING FLUID DENSITY
 DFV .                 53:   DRILLING FLUID VISCOSITY
 DFPH.                  9:   DRILLING FLUID PH
 DFL .                  8:   DRILLING FLUID LOSS
 MSS .           FLOWLINE:   MUD SAMPLE SOURCE
 RMS .OHMM           1.55:   RESISTIVITY MUD SAMPLE
 MST .F                58:   MUD SAMPLE TEMPERATURE
 RMF .OHMM           1.16:   RESISTIVITY MUD FILTRATE SAMPLE
 MFST.F                58:   MUD FILTRATE SAMPLE TEMPERATURE
 RMC .OHMM           1.93:   RESISTIVITY MUD CAKE
 MCST.F                58:   MUD CAKE SAMPLE TEMPERATURE
 MFSS.               CALC:   MUD FILTRATE SAMPLE SOURCE
 MCSS.               CALC:   MUD CAKE SAMPLE SOURCE
 TCS .HRS               2:   TIME CURCULATED STOPPED
 MRT .F               100:   MAXIMUM RECORDED TEMPERATURE
 LUN .            HL 6307:   LOGGING UNIT NUMBER
 LUL .             CASPER:   LOGGING UNIT LOCATION
 ENGI.            WADDELL:   RECORDING ENGINEER
 WITN.             STRONG:   WITNESSED BY
 CLNT.            A2DTECH:   CLIENT CODE
 ORIG.           5" PRINT:   ORIGIN OF DATA
 UWI .       490252249300:   UNIQUE WELL ID
 DICO. A2D Technologies, Inc.:   DIGITIZING COMPANY
~OTHER INFORMATION
~A    DEPT      GRR      RFOC       RILD       RILM        SPR   
# ...
  488.0000    86.5297     9.6639     7.9033     9.2973   -44.8275
  488.1000    86.0241     9.6640     7.8733     9.2979   -44.9527
  488.2000    85.3247     9.7027     7.8733     9.2985   -44.9523
  488.3000    84.8400     9.7319     7.8733     9.2992   -44.9520
  488.4000    84.5973     9.7321     7.8733     9.2998   -45.0294
  488.5000    84.2466     9.7322     7.8388     9.2947   -45.1032
  488.6000    84.2466     9.7324     7.8184     9.2365   -45.1304
  488.7000    84.2466     9.7820     7.8022     9.2371   -45.2543
  488.8000    84.2466     9.8390     7.7637     9.2377   -45.2540
  488.9000    84.3353     9.8964     7.7637     9.2383   -45.3577
  489.0000    84.5251     9.9388     7.7637     9.2390   -45.4052
  489.1000    84.7149     9.9425     7.7637     9.2396   -45.4049
  489.2000    84.9315    10.0087     7.7891     9.2403   -45.4045
  489.3000    85.2575    10.0088     7.8184     9.1919   -45.4079
  489.4000    85.5126    10.0089     7.8184     9.1773   -45.5556
  489.5000    85.7025    10.0355     7.8184     9.1779   -45.5554
  489.6000    85.8923    10.0793     7.8623     9.1785   -45.4750
  489.7000    86.0731    10.0794     7.8733     9.1792   -45.4030
  489.8000    86.0731    10.0796     7.8733     9.1799   -45.4027
  489.9000    85.9128    10.0797     7.8899     9.1315   -45.3976
  490.0000    85.8447    10.0799     7.9287     9.1172   -45.2503
  490.1000    85.7615    10.0800     7.9287     9.1179   -45.2501
  490.2000    85.6164    10.0801     7.9287     9.1185   -45.2498
  490.3000    85.6102    10.0803     7.9287     9.1191   -45.1932
  490.4000    85.3881    10.0804     7.9287     9.1198   -45.0974
  490.5000    85.2306    10.0806     7.9287     9.1204   -45.1032
  490.6000    85.1598    10.0807     7.9287     9.0827   -45.2485
  490.7000    84.9315    10.0808     7.9287     9.0582   -45.2483
  490.8000    84.9315    10.0681     7.9287     9.0588   -45.2480
  490.9000    84.9315    10.0110     7.9287     9.0528   -45.2477
  491.0000    84.8143    10.0112     7.9549     8.9971   -45.2150
  491.1000    84.6245    10.0113     7.9845     8.9492   -45.0953
  491.2000    84.4347    10.0114     7.9845     8.8979   -45.0950
  491.3000    84.2449    10.0116     7.9845     8.8741   -45.0947
  491.4000    84.0183    10.0117     7.9845     8.8577   -45.0944
  491.5000    84.0183    10.0119     7.9845     8.8135   -45.0354
  491.6000    83.9038    10.0120     7.9845     8.8143   -44.9420
  491.7000    83.7900    10.0121     7.9675     8.7671   -44.9417
  491.8000    83.7525     9.9777     7.9287     8.7168   -44.9414
  491.9000    83.5616     9.9428     7.9287     8.6668   -44.9411
  492.0000    83.3729     9.9429     7.8841     8.6339   -44.8558
  492.1000    83.3333     9.9431     7.8381     8.6345   -44.7888
  492.2000    83.3333     9.8299     7.7925     8.6352   -44.7885
  492.3000    83.3333     9.8056     7.7471     8.5887   -44.7882
  492.4000    83.2986     9.7726     7.7095     8.5762   -44.7878
  492.5000    83.1050     9.7162     7.7095     8.5500   -44.7876
  492.6000    83.1050     9.6502     7.7095     8.5009   -44.7873
  492.7000    83.1050     9.5362     7.6749     8.4521   -44.7869
  492.8000    83.1050     9.4826     7.6557     8.4008   -44.7866
  492.9000    83.1050     9.4279     7.6391     8.4014   -44.7863
  493.0000    83.1050     9.3735     7.5946     8.3657   -44.7860
  493.1000    83.1050     9.3194     7.5491     8.3441   -44.7857
  493.2000    83.1050     9.2656     7.5491     8.3113   -44.6980
  493.3000    83.1050     9.2100     7.5151     8.2225   -44.6334
  493.4000    83.2113     9.2101     7.4964     8.1728   -44.6331
  493.5000    83.3333     9.1699     7.4800     8.1285   -44.6328
  493.6000    83.3626     9.1170     7.4440     8.0818   -44.6324
  493.7000    83.5616     9.0644     7.4440     8.0355   -44.6322
  493.8000    83.7421     9.0198     7.4017     7.9894   -44.6319
  493.9000    83.7900     9.0200     7.3920     7.9504   -44.6316
  494.0000    83.7900     8.9708     7.3672     7.9511   -44.5928
  494.1000    83.8549     8.9575     7.3404     7.9077   -44.4792
  494.2000    84.0183     8.9576     7.3404     7.8968   -44.4789
  494.3000    84.0183     8.9578     7.3404     7.8974   -44.4786
  494.4000    84.3738     8.9579     7.2986     7.8979   -44.4783
  494.5000    84.6142     8.9580     7.2891     7.8985   -44.4132
  494.6000    84.9047     8.9581     7.2891     7.8990   -44.3259
  494.7000    85.2843     8.9583     7.2891     7.8996   -44.3256
  494.8000    85.6402     8.9584     7.2891     7.9001   -44.3253
  494.9000    85.8447     8.9585     7.2891     7.9265   -44.3250
  495.0000    86.5449     8.9586     7.2891     7.9566   -44.2337
  495.1000    87.1675     8.9588     7.2891     7.9571   -44.1727
  495.2000    87.8349     8.9589     7.2891     7.9577   -44.1724
  495.3000    88.4752     8.9590     7.2729     8.0030   -44.1563
  495.4000    88.8759     8.9591     7.2382     8.0146   -44.0200
  495.5000    89.4977     8.9593     7.2382     8.0151   -44.0197
  495.6000    89.4977     8.9594     7.2382     8.0328   -43.9272
  495.7000    89.6315     8.9595     7.2382     8.0724   -43.8002
  495.8000    89.7260     8.9596     7.2136     8.0730   -43.7153
  495.9000    89.7260     8.9235     7.1716     8.0283   -43.7150
  496.0000    89.7260     8.8976     7.1374     8.0179   -43.7147
  496.1000    89.7260     8.8977     7.1374     8.0185   -43.7144
  496.2000    89.7260     8.8978     7.0965     8.0191   -43.7141
  496.3000    89.7260     8.8980     7.0876     8.0117   -43.7138
  496.4000    89.6335     8.8981     7.0876     7.9644   -43.7135
  496.5000    89.4977     8.8982     7.0716     7.9649   -43.7132
  496.6000    89.4667     8.8735     7.0381     7.9655   -43.7129
  496.7000    89.0411     8.8366     7.0381     7.9660   -43.8324
  496.8000    88.8743     8.8367     7.0381     7.9493   -43.8640
  496.9000    88.6845     8.8368     7.0058     7.9037   -43.9334
  497.0000    88.4947     8.8370     6.9889     7.8572   -44.0152
  497.1000    88.3562     8.8028     6.9731     7.8132   -44.0343
  497.2000    88.3434     8.7758     6.9325     7.7684   -44.1663
  497.3000    88.1279     8.7759     6.8916     7.7239   -44.1660
  497.4000    88.1279     8.7792     6.8916     7.6965   -44.1657
  497.5000    88.1279     8.8376     6.8916     7.6810   -44.1654
  497.6000    88.1279     8.8377     6.8916     7.5908   -44.1194
  497.7000    88.1279     8.8716     6.8759     7.5481   -44.0131
  497.8000    88.1279     8.8998     6.8435     7.5390   -44.0127
  497.9000    88.1279     8.9000     6.8435     7.5141   -43.8903
  498.0000    88.2892     8.9026     6.8040     7.4709   -43.7633
  498.1000    88.3562     8.9625     6.7643     7.4201   -43.6363
  498.2000    88.3562     8.9626     6.7249     7.3334   -43.5563
  498.3000    88.3104     8.9628     6.7011     7.3339   -43.5560
  498.4000    88.1205     8.9629     6.6935     7.3009   -43.5557
  498.5000    87.8995     8.9630     6.6543     7.2344   -43.5554
  498.6000    87.7409     8.9631     6.5775     7.1672   -43.4567
  498.7000    87.3109     8.9633     6.5313     7.1261   -43.4030
  498.8000    86.6599     8.9634     6.4932     7.0848   -43.4027
  498.9000    85.9007     8.9635     6.4406     7.0041   -43.4024
  499.0000    85.1508     8.9416     6.3729     6.9554   -43.4021
  499.1000    84.7032     8.9014     6.3356     6.9155   -43.4018
  499.2000    84.3914     8.8996     6.3356     6.8602   -43.4015
  499.3000    84.1292     8.7783     6.3356     6.7888   -43.4012
  499.4000    84.0183     8.7370     6.3136     6.7496   -43.4009
  499.5000    83.9779     8.6559     6.2914     6.7501   -43.4006
  499.6000    83.7882     8.5161     6.2914     6.7194   -43.4003
  499.7000    83.5616     8.2915     6.2914     6.7040   -43.5258
  499.8000    83.5616     7.9594     6.3282     6.7045   -43.5514
  499.9000    83.6762     7.3225     6.3356     6.7050   -43.5511
  500.0000    83.8661     6.9936     6.3356     6.7055   -43.5508
  500.1000    84.0559     6.8055     6.3356     6.7530   -43.5760
