~VERSION INFORMATION
 VERS.                2.0:   CWLS LOG ASCII STANDARD - VERSION 2.0
 WRAP.                 NO:   ONE LINE PER DEPTH STEP
~WELL INFORMATION
#MNEM.UNIT      DATA TYPE    INFORMATION
#----------   ------------   ------------------------------
 STRT.F            0.0000:   START DEPTH
 STOP.F          540.0000:   STOP DEPTH
 STEP.F            0.1000:   STEP LENGTH
 NULL.          -999.2500:   NO VALUE
 COMP.       F D SERV INC:   COMPANY
 WELL.      77-1 X3 #77-3:   WELL
 FLD .             TEAPOT:   FIELD
 LOC .       S3 T38N R78W:   LOCATION
 CNTY.            NATRONA:   COUNTY
 STAT.            WYOMING:   STATE
 CTRY. UNITED STATES OF AMERICA:   COUNTRY
 SRVC.     Atlas Wireline:   SERVICE COMPANY
 DATE.        20-DEC-1991:   LOGDATE
 API .       490252249300:   API NUMBER
~CURVE INFORMATION
#MNEM.UNIT       API CODE    CURVE DESCRIPTION
#----------   ------------   ------------------------------
 DEPT.F                  :   
 GRR .GAPI   07 310 01 00:   GAMMA RAY
 RFOC.OHMM   07 270 04 00:   RESISTIVITY FOCUSED LOG
 RILD.OHMM   07 120 46 00:   INDUCTION LOG DEEP RESISTIVITY
 RILM.OHMM   07 120 44 00:   INDUCTION LOG MEDIUM RESISTIVITY
 SPR .MV     07 010 01 00:   SPONTANEOUS POTENTIAL
~PARAMETER INFORMATION
#MNEM.UNIT          VALUE    DESCRIPTION
#----------   ------------   ------------------------------
 PD  .                 GL:   PERMANENT DATUM
 EPD .F              5161:   ELEVATION PERMANENT DATUM
 LMF .                 KB:   LOG MEASURED FROM
 DAPD.F                10:   FEET ABOVE PERMANENT DATUM
 DMF .                 KB:   DRILLING MEASURED FROM
 EKB .F              5171:   KELLING BUSHING
 EGL .F              5161:   GROUND LEVEL
 DATE.        20-DEC-1991:   RUN DATE
 RUN .                  1:   RUN NUMBER
 DD  .F               545:   DEPTH DRILLER
 DL  .F               543:   DEPTH LOGGER
 BLI .F               540:   BOTTOM LOG INTERVAL
 CS  .IN            8.625:   CASING SIZE
 CBD .F               175:   CASING BOTTOM DRILLER
 CBL .F               172:   CASING BOTTOM LOGGER
 BS  .IN            7.875:   BIT SIZE
 BSD .F               545:   BIT SIZE AT DEPTH
 DFT .           CHEM GEL:   DRILLING FLUID TYPE
 DFD .               16.8:   DRILLING FLUID DENSITY
 DFV .                 53:   DRILLING FLUID VISCOSITY
 DFPH.                  9:   DRILLING FLUID PH
 DFL .                  8:   DRILLING FLUID LOSS
 MSS .           FLOWLINE:   MUD SAMPLE SOURCE
 RMS .OHMM           1.55:   RESISTIVITY MUD SAMPLE
 MST .F                58:   MUD SAMPLE TEMPERATURE
 RMF .OHMM           1.16:   RESISTIVITY MUD FILTRATE SAMPLE
 MFST.F                58:   MUD FILTRATE SAMPLE TEMPERATURE
 RMC .OHMM           1.93:   RESISTIVITY MUD CAKE
 MCST.F                58:   MUD CAKE SAMPLE TEMPERATURE
 MFSS.               CALC:   MUD FILTRATE SAMPLE SOURCE
 MCSS.               CALC:   MUD CAKE SAMPLE SOURCE
 TCS .HRS               2:   TIME CURCULATED STOPPED
 MRT .F               100:   MAXIMUM RECORDED TEMPERATURE
 LUN .            HL 6307:   LOGGING UNIT NUMBER
 LUL .             CASPER:   LOGGING UNIT LOCATION
 ENGI.            WADDELL:   RECORDING ENGINEER
 WITN.             STRONG:   WITNESSED BY
 CLNT.            A2DTECH:   CLIENT CODE
 ORIG.           5" PRINT:   ORIGIN OF DATA
 UWI .       490252249300:   UNIQUE WELL ID
 DICO. A2D Technologies, Inc.:   DIGITIZING COMPANY
~OTHER INFORMATION
~A    DEPT      GRR      RFOC       RILD       RILM        SPR   
# ...
  256.2000    95.7753     7.3265     6.4307     6.5035    40.0607
  256.3000    95.7772     7.3166     6.4308     6.5039    40.0607
  256.4000    95.8259     7.2942     6.4309     6.5044    40.1360
  256.5000    96.0091     7.2671     6.4065     6.5048    40.2124
  256.6000    95.7829     7.2564     6.3861     6.5053    40.2124
  256.7000    95.6248     7.1679     6.3862     6.5057    40.2124
  256.8000    95.4368     7.1685     6.3843     6.5062    40.2124
  256.9000    95.2488     7.1391     6.3418     6.5067    40.2124
  257.0000    95.0167     7.1201     6.3419     6.5071    40.2124
  257.1000    94.6446     7.1208     6.3420     6.5076    40.2124
  257.2000    94.4241     7.1168     6.3420     6.5080    40.2339
  257.3000    94.2686     7.0727     6.3421     6.5085    40.3642
  257.4000    93.9622     7.0733     6.3422     6.5089    40.4860
  257.5000    93.7443     7.0740     6.3423     6.5094    40.5159
  257.6000    93.7047     7.0747     6.3424     6.5099    40.5159
  257.7000    93.5196     7.0754     6.3425     6.5103    40.5607
  257.8000    93.5218     7.0725     6.3426     6.5107    40.6677
  257.9000    93.6775     7.0277     6.3427     6.5112    40.6677
  258.0000    93.8691     7.0283     6.3451     6.5117    40.6677
  258.1000    94.0608     7.0290     6.3875     6.5121    40.7613
  258.2000    94.2524     7.0296     6.3876     6.5126    40.8194
  258.3000    94.4442     7.0303     6.3876     6.5485    40.8617
  258.4000    94.8255     7.0310     6.4052     6.5591    40.9878
  258.5000    95.2070     7.0318     6.4429     6.5596    41.1229
  258.6000    95.5884     7.0675     6.4781     6.5600    41.2399
  258.7000    95.9698     7.0823     6.4782     6.5605    41.2747
  258.8000    96.3873     7.1015     6.4783     6.5610    41.2747
  258.9000    96.9662     7.1333     6.4784     6.5614    41.2747
  259.0000    97.1552     7.1357     6.4964     6.5619    41.2888
  259.1000    97.7930     7.1848     6.5241     6.5623    41.4264
  259.2000    98.4438     7.2202     6.5242     6.5504    41.4264
  259.3000    98.9434     7.2629     6.5243     6.5175    41.5152
  259.4000    99.3580     7.2878     6.5244     6.5181    41.6413
  259.5000    99.9453     7.2885     6.5503     6.5185    41.7299
  259.6000   100.6850     7.2892     6.5705     6.5189    41.7416
  259.7000   101.2999     7.2900     6.5706     6.4996    41.8816
  259.8000   101.7637     7.2906     6.5707     6.4745    41.8816
  259.9000   102.2142     7.2913     6.5708     6.4659    41.9680
  260.0000   102.8159     7.2583     6.5708     6.3856    42.0334
  260.1000   103.6092     7.1835     6.5709     6.3520    42.0684
  260.2000   104.1563     7.1424     6.5710     6.3420    42.1945
  260.3000   104.5842     7.1431     6.5603     6.3234    42.3369
  260.4000   105.0703     7.1113     6.5253     6.2988    42.4465
  260.5000   105.5091     7.0473     6.5254     6.2950    42.4886
  260.6000   105.6731     6.9971     6.4585     6.2559    42.5469
  260.7000   105.6750     6.9909     6.3836     6.1902    42.6729
  260.8000   105.4977     6.9499     6.2917     6.1444    42.7990
  260.9000   105.3097     6.9505     6.1926     6.0731    42.9439
  261.0000   105.0198     6.9512     6.1206     5.9685    42.9439
  261.1000   104.6420     6.9519     6.0417     5.8693    43.0254
  261.2000   104.2393     6.9526     6.0105     5.7958    43.0956
  261.3000   103.6312     6.9593     5.9278     5.7050    43.1257
  261.4000   102.9279     7.0027     5.8581     5.6068    43.2518
  261.5000   102.5837     7.0417     5.8044     5.3549    43.3991
  261.6000   102.1973     7.1138     5.7065     5.0501    43.5039
  261.7000   101.6298     7.1528     5.6332     4.9660    43.6300
  261.8000   101.0843     7.1535     5.5459     4.9035    43.7026
  261.9000   100.6741     7.1542     5.4496     4.7274    43.7303
  262.0000   100.1552     7.1550     5.3703     4.5395    43.8584
  262.1000    99.8577     7.1556     5.2989     4.3964    44.1578
  262.2000    99.5732     7.0975     5.2038     4.3104    44.2602
  262.3000    99.3114     7.0164     5.0714     4.2608    44.3096
  262.4000    99.3132     6.9485     5.0449     4.2070    44.3605
  262.5000    99.3153     6.9011     4.9750     4.1853    44.5119
  262.6000    99.6584     6.7705     4.9170     4.1783    44.7648
  262.7000    99.9076     6.7361     4.8714     4.1908    44.7648
  262.8000   100.0992     6.5451     4.7952     4.2082    44.8647
  262.9000   100.3461     6.2312     4.7953     4.2132    44.9165
  263.0000   100.6941     5.6890     4.9172     4.2680    44.9651
  263.1000   100.6961     5.4640     4.8973     4.2906    45.0683
  263.2000   100.8658     5.2375     4.8974     4.2985    45.0683
  263.3000   100.9278     5.0298     4.8974     4.3111    45.1915
  263.4000   100.9297     4.8517     4.8975     4.3366    45.3175
  263.5000   100.9315     4.7441     4.8976     4.3645    45.3718
  263.6000   100.9193     4.6821     4.8831     4.4215    45.3718
  263.7000   100.7071     4.6364     4.8635     4.4447    45.3718
  263.8000   100.2129     4.6007     4.8636     4.4890    45.3718
  263.9000    99.6453     4.5864     4.8636     4.5289    45.2510
  264.0000    99.0776     4.5933     4.8637     4.5711    45.2200
  264.1000    98.5100     4.6204     4.8638     4.6469    45.1507
  264.2000    97.9424     4.6523     4.8785     4.6775    45.0683
  264.3000    97.2934     4.6978     4.8981     4.7508    45.0683
  264.4000    96.8074     4.8234     4.8982     4.8154    45.0683
  264.5000    96.4878     5.0842     4.8983     4.8860    45.0683
  264.6000    96.3854     5.4442     4.8983     4.9557    45.1610
  264.7000    96.3872     5.7004     4.9190     4.9898    45.2200
  264.8000    96.3890     5.9014     4.9479     5.0884    45.2200
  264.9000    96.3912     6.0138     4.9863     5.1149    45.2200
  265.0000    96.3927     6.1121     5.0414     5.1656    45.2200
  265.1000    96.6371     6.1983     5.0734     5.2117    45.2200
  265.2000    96.9358     6.3075     5.1009     5.2340    45.2200
  265.3000    97.1717     6.4198     5.1309     5.2320    45.2200
  265.4000    97.5648     6.4573     5.1610     5.1983    45.2200
  265.5000    98.4569     6.5251     5.1815     5.1986    45.2200
  265.6000    98.7726     6.5796     5.1816     5.1786    45.2200
  265.7000   100.9060     6.6041     5.1816     5.1349    45.2200
  265.8000   102.3551     6.6177     5.1817     5.0679    45.2200
  265.9000   102.8849     6.6982     5.1818     4.9825    45.2200
  266.0000   103.2633     6.7364     5.1501     4.9180    45.2200
  266.1000   103.4908     6.7762     5.0903     4.8687    45.2308
  266.2000   103.6466     6.7943     5.0274     4.8128    45.3718
  266.3000   103.7224     6.8088     4.9340     4.7704    45.2607
  266.4000   103.7242     6.8490     4.8807     4.7357    45.1346
  266.5000   103.6872     6.8918     4.8241     4.6849    45.0086
  266.6000   103.4993     6.9301     4.7388     4.6853    44.9165
  266.7000   103.3113     6.9414     4.6382     4.6856    44.9165
  266.8000   102.9716     6.9421     4.5575     4.6678    44.9165
  266.9000   102.7070     6.9297     4.4731     4.6536    44.9165
  267.0000   102.4444     6.8904     4.4246     4.6540    44.9995
  267.1000   102.1027     6.8480     4.3546     4.6560    45.0683
  267.2000   101.9124     6.7764     4.3058     4.6873    45.1314
  267.3000   101.9142     6.6718     4.2807     4.6876    45.3718
  267.4000   101.9160     6.5765     4.2558     4.6879    45.3718
  267.5000   101.9178     6.4791     4.2296     4.6882    45.4780
  267.6000   101.9196     6.3142     4.2065     4.6956    45.5235
  267.7000   101.9215     5.9595     4.2001     4.7217    45.5784
  267.8000   101.9233     5.7206     4.2002     4.7221    45.6753
  267.9000   101.9251     5.4639     4.2003     4.7460    45.6821
  268.0000   101.9269     5.3845     4.2003     4.7558    45.9788
  268.1000   101.9288     5.0779     4.2004     4.7688    45.9788
  268.2000   101.8615     4.8296     4.2472     4.7898    45.9788
  268.3000   101.6429     4.6461     4.2784     4.7886    46.0312
