~VERSION INFORMATION
 VERS.                2.0:   CWLS LOG ASCII STANDARD - VERSION 2.0
 WRAP.                 NO:   ONE LINE PER DEPTH STEP
~WELL INFORMATION
#MNEM.UNIT      DATA TYPE    INFORMATION
#----------   ------------   ------------------------------
 STRT.F            0.0000:   START DEPTH
 STOP.F          540.0000:   STOP DEPTH
 STEP.F            0.1000:   STEP LENGTH
 NULL.          -999.2500:   NO VALUE
 COMP.       F D SERV INC:   COMPANY
 WELL.      77-1 X3 #77-3:   WELL
 FLD .             TEAPOT:   FIELD
 LOC .       S3 T38N R78W:   LOCATION
 CNTY.            NATRONA:   COUNTY
 STAT.            WYOMING:   STATE
 CTRY. UNITED STATES OF AMERICA:   COUNTRY
 SRVC.     Atlas Wireline:   SERVICE COMPANY
 DATE.        20-DEC-1991:   LOGDATE
 API .       490252249300:   API NUMBER
~CURVE INFORMATION
#MNEM.UNIT       API CODE    CURVE DESCRIPTION
#----------   ------------   ------------------------------
 DEPT.F                  :   
 GRR .GAPI   07 310 01 00:   GAMMA RAY
 RFOC.OHMM   07 270 04 00:   RESISTIVITY FOCUSED LOG
 RILD.OHMM   07 120 46 00:   INDUCTION LOG DEEP RESISTIVITY
 RILM.OHMM   07 120 44 00:   INDUCTION LOG MEDIUM RESISTIVITY
 SPR .MV     07 010 01 00:   SPONTANEOUS POTENTIAL
~PARAMETER INFORMATION
#MNEM.UNIT          VALUE    DESCRIPTION
#----------   ------------   ------------------------------
 PD  .                 GL:   PERMANENT DATUM
 EPD .F              5161:   ELEVATION PERMANENT DATUM
 LMF .                 KB:   LOG MEASURED FROM
 DAPD.F                10:   FEET ABOVE PERMANENT DATUM
 DMF .                 KB:   DRILLING MEASURED FROM
 EKB .F              5171:   KELLING BUSHING
 EGL .F              5161:   GROUND LEVEL
 DATE.        20-DEC-1991:   RUN DATE
 RUN .                  1:   RUN NUMBER
 DD  .F               545:   DEPTH DRILLER
 DL  .F               543:   DEPTH LOGGER
 BLI .F               540:   BOTTOM LOG INTERVAL
 CS  .IN            8.625:   CASING SIZE
 CBD .F               175:   CASING BOTTOM DRILLER
 CBL .F               172:   CASING BOTTOM LOGGER
 BS  .IN            7.875:   BIT SIZE
 BSD .F               545:   BIT SIZE AT DEPTH
 DFT .           CHEM GEL:   DRILLING FLUID TYPE
 DFD .               16.8:   DRILLING FLUID DENSITY
 DFV .                 53:   DRILLING FLUID VISCOSITY
 DFPH.                  9:   DRILLING FLUID PH
 DFL .                  8:   DRILLING FLUID LOSS
 MSS .           FLOWLINE:   MUD SAMPLE SOURCE
 RMS .OHMM           1.55:   RESISTIVITY MUD SAMPLE
 MST .F                58:   MUD SAMPLE TEMPERATURE
 RMF .OHMM           1.16:   RESISTIVITY MUD FILTRATE SAMPLE
 MFST.F                58:   MUD FILTRATE SAMPLE TEMPERATURE
 RMC .OHMM           1.93:   RESISTIVITY MUD CAKE
 MCST.F                58:   MUD CAKE SAMPLE TEMPERATURE
 MFSS.               CALC:   MUD FILTRATE SAMPLE SOURCE
 MCSS.               CALC:   MUD CAKE SAMPLE SOURCE
 TCS .HRS               2:   TIME CURCULATED STOPPED
 MRT .F               100:   MAXIMUM RECORDED TEMPERATURE
 LUN .            HL 6307:   LOGGING UNIT NUMBER
 LUL .             CASPER:   LOGGING UNIT LOCATION
 ENGI.            WADDELL:   RECORDING ENGINEER
 WITN.             STRONG:   WITNESSED BY
 CLNT.            A2DTECH:   CLIENT CODE
 ORIG.           5" PRINT:   ORIGIN OF DATA
 UWI .       490252249300:   UNIQUE WELL ID
 DICO. A2D Technologies, Inc.:   DIGITIZING COMPANY
~OTHER INFORMATION
~A    DEPT      GRR      RFOC       RILD       RILM        SPR   
# ...
  427.0000    66.4612    10.7887    10.7931    12.1598   -49.9939
  427.1000    67.2215    10.7889    10.7931    12.1608   -49.9936
  427.2000    67.9818    10.7890    10.7931    12.1619   -50.1176
  427.3000    68.7420    10.7892    10.7931    12.1630   -50.1448
  427.4000    69.5315    10.7893    10.7931    12.1639   -50.1445
  427.5000    70.0800    10.8109    10.7931    12.2132   -50.1442
  427.6000    70.3616    10.8652    10.7931    12.2512   -50.1439
  427.7000    70.7638    10.8653    10.7931    12.2727   -50.1435
  427.8000    71.2666    10.9246    10.7931    12.3520   -50.1432
  427.9000    71.6470    10.9417    10.8534    12.5138   -50.1429
  428.0000    72.0457    10.9756    10.8690    12.7125   -50.2155
  428.1000    72.2269    11.0186    10.9394    12.8855   -50.2941
  428.2000    72.5599    11.0267    11.0450    13.1153   -50.2938
  428.3000    72.8361    11.0961    11.1000    13.3536   -50.2935
  428.4000    72.9607    11.0962    11.1000    13.4243   -50.2932
  428.5000    72.9338    11.1428    11.1614    13.4256   -50.2929
  428.6000    72.7334    11.2415    11.2757    13.4266   -50.2926
  428.7000    72.3758    11.3520    11.3718    13.4277   -50.2923
  428.8000    71.9963    11.4328    11.4156    13.4698   -50.2920
  428.9000    71.5146    11.6525    11.4248    13.5497   -50.2916
  429.0000    70.8175    11.9011    11.4959    13.6302   -50.2913
  429.1000    69.8426    12.2314    11.4959    13.7166   -50.2910
  429.2000    68.6265    12.8592    11.5453    13.7177   -50.3624
  429.3000    67.7412    13.7084    11.5410    13.7779   -50.4422
  429.4000    67.0694    14.4482    11.4959    13.9037   -50.4419
  429.5000    66.7009    15.4052    11.4959    14.0116   -50.4416
  429.6000    66.4493    16.1454    11.4959    14.0128   -50.5631
  429.7000    66.0936    16.6027    11.4959    14.0140   -50.6891
  429.8000    65.8895    16.8464    11.4959    13.9377   -50.8152
  429.9000    65.1886    17.0714    11.4959    13.8577   -50.8956
  430.0000    64.0182    17.3791    11.4959    13.7782   -50.8953
  430.1000    62.7875    17.8377    11.4880    13.7281   -50.8950
  430.2000    60.9247    18.2061    11.4156    13.7160   -51.0159
  430.3000    57.7477    18.4876    11.4156    13.6349   -51.0461
  430.4000    56.3032    18.6522    11.4156    13.5590   -51.0458
  430.5000    55.2625    18.7609    11.4156    13.4208   -51.0455
  430.6000    54.5288    18.8630    11.4156    13.3555   -51.0452
  430.7000    54.1530    18.8633    11.4084    13.3270   -51.0449
  430.8000    53.9635    18.8636    11.3359    13.2363   -51.1652
  430.9000    53.7940    18.8638    11.3359    13.0820   -51.1009
  431.0000    53.7946    18.7648    11.3359    13.0078   -51.0440
  431.1000    53.7950    18.5485    11.3359    12.8146   -51.0437
  431.2000    53.7954    18.3291    11.3359    12.6806   -51.0434
  431.3000    53.8909    17.9657    11.3293    12.5496   -51.0431
  431.4000    54.0813    17.6171    11.2567    12.3471   -50.9228
  431.5000    54.3082    17.0872    11.2567    12.2041   -50.8907
  431.6000    54.9389    16.4207    11.2112    11.9539   -50.8213
  431.7000    55.4488    15.6746    11.1781    11.8983   -50.7384
  431.8000    56.5452    14.9372    11.1591    11.7459   -50.7381
  431.9000    57.8754    13.4031    11.1000    11.5990   -50.7378
  432.0000    59.3698    12.7770    11.1000    11.5175   -50.4987
  432.1000    61.4016    12.2312    11.1000    11.3864   -50.3397
  432.2000    65.2156    11.8703    11.1000    11.3101   -50.2816
  432.3000    67.7362    11.6127    11.0688    11.2562   -50.2813
  432.4000    69.6783    11.4107    11.1597    11.1504   -50.2633
  432.5000    70.9246    11.1026    11.1000    11.0500   -50.1290
  432.6000    71.8220    10.9460    11.1000    10.9866   -50.0099
  432.7000    72.5823    10.8341    11.0433    10.9264   -49.8833
  432.8000    73.4375    10.7716    10.9361    10.9275   -49.7566
  432.9000    73.9365    10.7225    10.8390    10.8742   -49.6725
  433.0000    74.5068    10.7227    10.7760    10.8119   -49.6722
  433.1000    74.9876    10.7228    10.7090    10.8075   -49.6719
  433.2000    75.3680    10.7732    10.5685    10.8550   -49.5535
  433.3000    75.7228    10.8742    10.5152    10.8559   -49.3340
  433.4000    75.7234    11.0012    10.4540    10.8569   -49.2158
  433.5000    75.7237    11.1168    10.3653    10.8577   -49.1735
  433.6000    75.7242    11.1820    10.2606    10.9014   -49.0634
  433.7000    75.5494    11.2469    10.2009    10.9356   -49.0631
  433.8000    75.2192    11.3125    10.1332    10.9365   -48.9453
  433.9000    75.0297    11.3784     9.9825    10.9429   -48.9108
  434.0000    74.8129    11.4192     9.8845    11.0151   -48.7770
  434.1000    74.3255    11.4315     9.8531    11.0159   -48.6067
  434.2000    73.6319    11.4995     9.8531    11.0169   -48.5904
  434.3000    72.9584    11.5652     9.8531    11.0178   -48.4543
  434.4000    72.3416    11.5803     9.8531    10.9995   -48.4540
  434.5000    71.5823    11.5421     9.8531    10.9429   -48.4537
  434.6000    70.7060    11.4755     9.8531    10.9440   -48.3873
  434.7000    70.0634    11.4203     9.8531    10.9448   -48.2606
  434.8000    69.4264    11.4205     9.8531    10.9457   -48.1339
  434.9000    68.9411    11.3570     9.8531    10.9797   -47.9972
  435.0000    68.6073    11.2418     9.8531    11.0243   -47.9970
  435.1000    68.4178    11.1482     9.8531    11.0173   -47.9057
  435.2000    68.1973    11.0839     9.8531    10.9494   -47.8446
  435.3000    68.0388    11.0297     9.8782    10.9503   -47.8041
  435.4000    67.9699    11.0299     9.9224    10.9512   -47.6775
  435.5000    67.9703    10.9694     9.9224    10.9181   -47.5402
  435.6000    67.9708    10.9061     9.9224    10.8768   -47.4242
  435.7000    67.9767    10.8774     9.9224    10.8687   -47.2975
  435.8000    68.2001    10.8992     9.9224    10.8030   -47.2358
  435.9000    68.3575    10.9628     9.9224    10.7444   -47.2355
  436.0000    68.5480    11.0308     9.9224    10.7296   -47.2211
  436.1000    68.8188    11.0309     9.9224    10.7305   -47.0831
  436.2000    69.1991    11.0311     9.9224    10.7314   -47.0829
  436.3000    69.5758    11.0312     9.9224    10.7323   -46.9928
  436.4000    69.8010    11.0314     9.9224    10.7332   -46.8661
  436.5000    70.2672    11.0395     9.9224    10.7341   -46.7784
  436.6000    70.6037    11.1089     9.9224    10.7350   -46.7781
  436.7000    70.9511    11.1091     9.9224    10.7359   -46.7778
  436.8000    71.4813    11.1092     9.9224    10.7368   -46.6630
  436.9000    71.8636    11.1094     9.9224    10.7377   -46.6255
  437.0000    72.5435    11.1096     9.9224    10.7386   -46.6252
  437.1000    72.8506    11.1097     9.9224    10.7395   -46.6249
  437.2000    73.1160    11.1099     9.9224    10.7404   -46.6246
  437.3000    73.3831    11.0518     9.9224    10.7413   -46.6243
  437.4000    73.7251    11.0329     9.9224    10.7422   -46.6240
  437.5000    73.9155    11.0331     9.9224    10.7431   -46.5352
  437.6000    73.9160    11.0332     9.9224    10.7440   -46.5347
  437.7000    73.9164    11.0334     9.9224    10.7450   -46.6231
  437.8000    74.0302    11.0336     9.9224    10.7458   -46.6228
  437.9000    74.1457    10.9768     9.9224    10.7467   -46.6224
  438.0000    74.1461    10.9571     9.9224    10.7737   -46.6222
  438.1000    74.1466    10.9573     9.9224    10.8238   -46.6219
  438.2000    74.1470    10.9574     9.9224    10.8261   -46.6841
  438.3000    74.1475    10.9576     9.9224    10.9016   -46.7730
  438.4000    74.1479    10.9578     9.9224    10.9551   -46.7727
  438.5000    74.1484    10.9579     9.9224    11.0566   -46.7723
  438.6000    74.1489    10.9580     9.9224    11.0576   -46.8848
  438.7000    74.1493    10.9283     9.9224    11.0586   -47.0108
  438.8000    74.3361    10.8822     9.9224    11.0594   -47.0750
  438.9000    74.6744    10.8823     9.9224    11.0603   -47.1112
  439.0000    74.9452    10.8825     9.9224    11.0613   -47.2261
  439.1000    75.1356    10.8826     9.9224    11.0622   -47.2258
