~VERSION INFORMATION
 VERS.                2.0:   CWLS LOG ASCII STANDARD - VERSION 2.0
 WRAP.                 NO:   ONE LINE PER DEPTH STEP
~WELL INFORMATION
#MNEM.UNIT      DATA TYPE    INFORMATION
#----------   ------------   ------------------------------
 STRT.F            0.0000:   START DEPTH
 STOP.F          540.0000:   STOP DEPTH
 STEP.F            0.1000:   STEP LENGTH
 NULL.          -999.2500:   NO VALUE
 COMP.       F D SERV INC:   COMPANY
 WELL.      77-1 X3 #77-3:   WELL
 FLD .             TEAPOT:   FIELD
 LOC .       S3 T38N R78W:   LOCATION
 CNTY.            NATRONA:   COUNTY
 STAT.            WYOMING:   STATE
 CTRY. UNITED STATES OF AMERICA:   COUNTRY
 SRVC.     Atlas Wireline:   SERVICE COMPANY
 DATE.        20-DEC-1991:   LOGDATE
 API .       490252249300:   API NUMBER
~CURVE INFORMATION
#MNEM.UNIT       API CODE    CURVE DESCRIPTION
#----------   ------------   ------------------------------
 DEPT.F                  :   
 GRR .GAPI   07 310 01 00:   GAMMA RAY
 RFOC.OHMM   07 270 04 00:   RESISTIVITY FOCUSED LOG
 RILD.OHMM   07 120 46 00:   INDUCTION LOG DEEP RESISTIVITY
 RILM.OHMM   07 120 44 00:   INDUCTION LOG MEDIUM RESISTIVITY
 SPR .MV     07 010 01 00:   SPONTANEOUS POTENTIAL
~PARAMETER INFORMATION
#MNEM.UNIT          VALUE    DESCRIPTION
#----------   ------------   ------------------------------
 PD  .                 GL:   PERMANENT DATUM
 EPD .F              5161:   ELEVATION PERMANENT DATUM
 LMF .                 KB:   LOG MEASURED FROM
 DAPD.F                10:   FEET ABOVE PERMANENT DATUM
 DMF .                 KB:   DRILLING MEASURED FROM
 EKB .F              5171:   KELLING BUSHING
 EGL .F              5161:   GROUND LEVEL
 DATE.        20-DEC-1991:   RUN DATE
 RUN .                  1:   RUN NUMBER
 DD  .F               545:   DEPTH DRILLER
 DL  .F               543:   DEPTH LOGGER
 BLI .F               540:   BOTTOM LOG INTERVAL
 CS  .IN            8.625:   CASING SIZE
 CBD .F               175:   CASING BOTTOM DRILLER
 CBL .F               172:   CASING BOTTOM LOGGER
 BS  .IN            7.875:   BIT SIZE
 BSD .F               545:   BIT SIZE AT DEPTH
 DFT .           CHEM GEL:   DRILLING FLUID TYPE
 DFD .               16.8:   DRILLING FLUID DENSITY
 DFV .                 53:   DRILLING FLUID VISCOSITY
 DFPH.                  9:   DRILLING FLUID PH
 DFL .                  8:   DRILLING FLUID LOSS
 MSS .           FLOWLINE:   MUD SAMPLE SOURCE
 RMS .OHMM           1.55:   RESISTIVITY MUD SAMPLE
 MST .F                58:   MUD SAMPLE TEMPERATURE
 RMF .OHMM           1.16:   RESISTIVITY MUD FILTRATE SAMPLE
 MFST.F                58:   MUD FILTRATE SAMPLE TEMPERATURE
 RMC .OHMM           1.93:   RESISTIVITY MUD CAKE
 MCST.F                58:   MUD CAKE SAMPLE TEMPERATURE
 MFSS.               CALC:   MUD FILTRATE SAMPLE SOURCE
 MCSS.               CALC:   MUD CAKE SAMPLE SOURCE
 TCS .HRS               2:   TIME CURCULATED STOPPED
 MRT .F               100:   MAXIMUM RECORDED TEMPERATURE
 LUN .            HL 6307:   LOGGING UNIT NUMBER
 LUL .             CASPER:   LOGGING UNIT LOCATION
 ENGI.            WADDELL:   RECORDING ENGINEER
 WITN.             STRONG:   WITNESSED BY
 CLNT.            A2DTECH:   CLIENT CODE
 ORIG.           5" PRINT:   ORIGIN OF DATA
 UWI .       490252249300:   UNIQUE WELL ID
 DICO. A2D Technologies, Inc.:   DIGITIZING COMPANY
~OTHER INFORMATION
~A    DEPT      GRR      RFOC       RILD       RILM        SPR   
# ...
  402.6000    63.7708    15.2819    13.9887    14.1707   -60.2828
  402.7000    64.1512    15.1468    13.9887    14.1712   -60.4089
  402.8000    64.5316    15.0010    13.9887    14.2325   -60.5378
  402.9000    64.8534    14.8592    13.9887    14.3604   -60.6610
  403.0000    64.8539    14.3139    13.9887    14.5008   -60.7871
  403.1000    64.8543    14.2373    13.9887    14.5751   -60.8404
  403.2000    64.8548    14.2147    13.9887    14.5757   -60.8874
  403.3000    64.7512    14.2149    13.9768    14.6547   -60.9915
  403.4000    64.6274    14.2416    13.8910    14.7406   -60.9912
  403.5000    64.5730    14.3343    13.8910    14.8271   -61.1426
  403.6000    64.1717    14.5163    13.8910    14.8867   -61.1423
  403.7000    63.9932    14.5936    13.8910    14.8970   -61.1420
  403.8000    63.8037    14.8009    13.8910    14.9924   -61.1417
  403.9000    63.5119    14.9718    13.9022    14.9929   -61.1414
  404.0000    63.1963    15.0591    13.9887    14.9936   -61.1411
  404.1000    63.0324    15.1469    13.9887    14.9942   -61.0691
  404.2000    63.0329    15.2442    13.9887    14.9948   -60.9888
  404.3000    62.8562    15.3241    13.9887    14.9870   -60.9675
  404.4000    62.8055    15.3513    13.9887    14.8918   -60.8364
  404.5000    62.6050    15.3956    13.9887    14.8924   -60.7142
  404.6000    62.2877    15.4592    13.9887    14.8930   -60.6841
  404.7000    62.0982    15.4594    13.9887    14.8515   -60.6126
  404.8000    61.8941    15.4597    13.9887    14.7906   -60.4860
  404.9000    61.3685    15.3808    13.9887    14.7841   -60.3593
  405.0000    60.7992    15.3526    13.9887    14.6890   -60.2276
  405.1000    60.4270    15.3528    13.9985    14.6895   -60.2273
  405.2000    60.2374    15.3285    14.0871    14.6901   -60.1311
  405.3000    60.0260    15.2400    14.1627    14.6907   -60.0750
  405.4000    59.6137    15.1407    13.8910    14.7146   -60.0295
  405.5000    59.6142    15.0647    13.9327    14.8008   -59.9226
  405.6000    59.4794    15.0358    14.0142    14.8993   -59.9223
  405.7000    59.3868    14.9957    14.0871    14.9749   -59.8013
  405.8000    59.4457    14.9091    14.0871    15.0049   -59.7700
  405.9000    59.6160    14.8181    14.1619    15.0457   -59.6998
  406.0000    59.6165    14.6228    14.1862    15.1339   -59.6176
  406.1000    59.6169    14.5507    14.1862    15.2226   -59.6173
  406.2000    59.6174    14.5215    14.1862    15.3252   -59.6170
  406.3000    59.7128    14.4840    14.1945    15.3257   -59.6167
  406.4000    59.8466    14.4209    14.2860    15.3264   -59.6164
  406.5000    59.8470    14.4211    14.2860    15.3270   -59.6161
  406.6000    59.8475    14.4214    14.2860    15.3493   -59.6158
  406.7000    59.6781    14.4922    14.2860    15.4357   -59.6155
  406.8000    59.6201    14.5227    14.2860    15.4365   -59.6152
  406.9000    59.6205    14.5229    14.2935    15.4370   -59.6149
  407.0000    59.7855    14.5428    14.3865    15.4376   -59.6146
  407.1000    60.3556    14.6250    14.3865    15.4383   -59.6143
  407.2000    60.9918    14.6253    14.4443    15.4389   -59.6140
  407.3000    61.6644    14.6958    14.5287    15.4396   -59.6137
  407.4000    62.0356    14.7815    14.5896    15.4404   -59.6133
  407.5000    62.4087    14.8677    14.5896    15.4391   -59.6131
  407.6000    62.8731    14.9544    14.5896    15.3342   -59.6128
  407.7000    63.0634    15.0415    14.5896    15.3347   -59.6124
  407.8000    63.2777    15.1458    14.6474    15.3354   -59.6121
  407.9000    63.2781    15.2176    14.6922    15.3360   -59.6118
  408.0000    63.1507    15.3063    14.6922    15.3367   -59.6115
  408.1000    62.6927    15.3592    14.6862    15.3373   -59.6112
  408.2000    61.9332    15.3594    14.5896    15.3381   -59.6109
  408.3000    61.1866    15.3597    14.5896    15.3386   -59.6781
  408.4000    60.5407    15.3599    14.5896    15.3392   -59.7621
  408.5000    60.3767    15.3601    14.5896    15.3047   -59.7618
  408.6000    60.4393    15.3603    14.5673    15.2167   -59.7614
  408.7000    60.6297    15.3605    14.4877    15.1284   -59.7611
  408.8000    60.8201    15.3554    14.4877    15.1290   -59.7608
  408.9000    61.0434    15.3277    14.4877    15.0607   -59.7605
  409.0000    61.9133    15.3000    14.4324    15.0250   -59.7602
  409.1000    62.5639    15.2722    14.4248    15.0256   -59.7599
  409.2000    63.4483    15.2445    14.5092    15.0263   -59.7596
  409.3000    64.3127    15.2168    14.5896    15.0269   -59.7593
  409.4000    64.9781    15.1891    14.5896    14.9426   -59.6674
  409.5000    65.3677    15.1613    14.5896    14.9236   -59.5407
  409.6000    66.0256    15.0995    14.5896    14.8749   -59.4549
  409.7000    66.5082    15.0124    14.5896    14.8210   -59.4546
  409.8000    66.9561    14.9258    14.5896    14.8074   -59.4543
  409.9000    67.2525    14.8364    14.5896    14.7191   -59.3375
  410.0000    67.4429    14.6720    14.5896    14.7197   -59.2109
  410.1000    67.6260    14.6312    14.5896    14.7203   -59.0843
  410.2000    67.6266    14.5843    14.4818    14.6735   -58.9576
  410.3000    67.4680    14.4706    14.3865    14.6191   -58.8458
  410.4000    67.1580    14.3162    14.3670    14.6197   -58.8455
  410.5000    66.8607    14.2292    14.2860    14.6204   -58.7294
  410.6000    66.6712    14.2294    14.2860    14.6209   -58.5123
  410.7000    66.4817    14.1684    14.2171    14.5585   -58.3894
  410.8000    66.2594    14.1309    14.1862    14.5204   -58.3494
  410.9000    66.4169    14.0759    14.1862    14.5210   -58.2228
  411.0000    66.4886    13.9354    14.1677    14.5216   -58.0849
  411.1000    66.5694    13.9357    14.0871    14.5223   -57.8542
  411.2000    66.7598    13.8607    14.0871    14.5229   -57.7809
  411.3000    66.9539    13.8391    14.0200    14.5853   -57.7161
  411.4000    67.4037    13.8393    13.9887    14.6258   -57.5895
  411.5000    67.5594    13.8395    13.9887    14.6265   -57.4628
  411.6000    67.8667    13.8397    13.9887    14.6375   -57.3244
  411.7000    68.0900    13.8399    13.9887    14.7302   -57.2095
  411.8000    68.0904    13.8401    13.9887    14.8891   -57.1721
  411.9000    68.0891    13.8980    13.9887    14.9386   -57.1718
  412.0000    67.8631    13.9374    13.9887    14.9839   -57.1330
  412.1000    67.8635    13.9376    13.9887    15.0445   -57.0194
  412.2000    67.7488    13.9465    13.9887    15.0546   -57.0191
  412.3000    67.4060    14.0356    13.9887    14.8098   -57.0188
  412.4000    66.9133    14.1097    13.9887    14.9150   -57.0185
  412.5000    66.7237    14.1920    13.9887    15.0211   -57.0182
  412.6000    66.1543    14.2747    13.9887    15.0221   -57.0179
  412.7000    65.8881    14.3580    13.9887    15.0233   -57.0176
  412.8000    65.3589    14.4495    14.0048    15.0605   -57.0173
  412.9000    64.8991    14.6369    14.0871    15.1311   -57.1304
  413.0000    64.8630    14.6371    14.0871    15.1324   -57.1684
  413.1000    64.6717    14.7548    14.0871    15.1339   -57.1681
  413.2000    64.4840    14.8850    14.0871    15.1349   -57.2051
  413.3000    64.2945    14.9718    14.0871    15.1362   -57.3311
  413.4000    64.1050    15.0522    14.0871    15.1375   -57.4707
  413.5000    63.9886    15.0524    14.0871    15.1184   -57.4704
  413.6000    63.9543    15.0526    14.0871    15.0286   -57.5575
  413.7000    63.7612    15.0528    14.0871    14.8276   -57.6216
  413.8000    63.7616    15.0530    14.0871    14.7563   -57.6213
  413.9000    63.6142    15.0532    14.0871    14.6716   -57.6209
  414.0000    63.4247    15.0478    14.0871    14.6254   -57.6206
  414.1000    63.3064    14.9490    14.0871    14.6053   -57.6203
  414.2000    63.3069    14.8748    14.0074    14.5215   -57.6200
  414.3000    63.3073    14.7328    13.9887    14.4264   -57.5583
  414.4000    63.6767    14.6014    13.9887    14.4274   -57.4677
  414.5000    63.9109    14.5171    13.9887    14.4286   -57.4462
  414.6000    64.1014    14.4292    13.9887    14.3908   -57.1635
  414.7000    64.4306    14.2376    13.9887    14.3306   -57.0517
