~VERSION INFORMATION
 VERS.                2.0:   CWLS LOG ASCII STANDARD - VERSION 2.0
 WRAP.                 NO:   ONE LINE PER DEPTH STEP
~WELL INFORMATION
#MNEM.UNIT      DATA TYPE    INFORMATION
#----------   ------------   ------------------------------
 STRT.F            0.0000:   START DEPTH
 STOP.F          540.0000:   STOP DEPTH
 STEP.F            0.1000:   STEP LENGTH
 NULL.          -999.2500:   NO VALUE
 COMP.       F D SERV INC:   COMPANY
 WELL.      77-1 X3 #77-3:   WELL
 FLD .             TEAPOT:   FIELD
 LOC .       S3 T38N R78W:   LOCATION
 CNTY.            NATRONA:   COUNTY
 STAT.            WYOMING:   STATE
 CTRY. UNITED STATES OF AMERICA:   COUNTRY
 SRVC.     Atlas Wireline:   SERVICE COMPANY
 DATE.        20-DEC-1991:   LOGDATE
 API .       490252249300:   API NUMBER
~CURVE INFORMATION
#MNEM.UNIT       API CODE    CURVE DESCRIPTION
#----------   ------------   ------------------------------
 DEPT.F                  :   
 GRR .GAPI   07 310 01 00:   GAMMA RAY
 RFOC.OHMM   07 270 04 00:   RESISTIVITY FOCUSED LOG
 RILD.OHMM   07 120 46 00:   INDUCTION LOG DEEP RESISTIVITY
 RILM.OHMM   07 120 44 00:   INDUCTION LOG MEDIUM RESISTIVITY
 SPR .MV     07 010 01 00:   SPONTANEOUS POTENTIAL
~PARAMETER INFORMATION
#MNEM.UNIT          VALUE    DESCRIPTION
#----------   ------------   ------------------------------
 PD  .                 GL:   PERMANENT DATUM
 EPD .F              5161:   ELEVATION PERMANENT DATUM
 LMF .                 KB:   LOG MEASURED FROM
 DAPD.F                10:   FEET ABOVE PERMANENT DATUM
 DMF .                 KB:   DRILLING MEASURED FROM
 EKB .F              5171:   KELLING BUSHING
 EGL .F              5161:   GROUND LEVEL
 DATE.        20-DEC-1991:   RUN DATE
 RUN .                  1:   RUN NUMBER
 DD  .F               545:   DEPTH DRILLER
 DL  .F               543:   DEPTH LOGGER
 BLI .F               540:   BOTTOM LOG INTERVAL
 CS  .IN            8.625:   CASING SIZE
 CBD .F               175:   CASING BOTTOM DRILLER
 CBL .F               172:   CASING BOTTOM LOGGER
 BS  .IN            7.875:   BIT SIZE
 BSD .F               545:   BIT SIZE AT DEPTH
 DFT .           CHEM GEL:   DRILLING FLUID TYPE
 DFD .               16.8:   DRILLING FLUID DENSITY
 DFV .                 53:   DRILLING FLUID VISCOSITY
 DFPH.                  9:   DRILLING FLUID PH
 DFL .                  8:   DRILLING FLUID LOSS
 MSS .           FLOWLINE:   MUD SAMPLE SOURCE
 RMS .OHMM           1.55:   RESISTIVITY MUD SAMPLE
 MST .F                58:   MUD SAMPLE TEMPERATURE
 RMF .OHMM           1.16:   RESISTIVITY MUD FILTRATE SAMPLE
 MFST.F                58:   MUD FILTRATE SAMPLE TEMPERATURE
 RMC .OHMM           1.93:   RESISTIVITY MUD CAKE
 MCST.F                58:   MUD CAKE SAMPLE TEMPERATURE
 MFSS.               CALC:   MUD FILTRATE SAMPLE SOURCE
 MCSS.               CALC:   MUD CAKE SAMPLE SOURCE
 TCS .HRS               2:   TIME CURCULATED STOPPED
 MRT .F               100:   MAXIMUM RECORDED TEMPERATURE
 LUN .            HL 6307:   LOGGING UNIT NUMBER
 LUL .             CASPER:   LOGGING UNIT LOCATION
 ENGI.            WADDELL:   RECORDING ENGINEER
 WITN.             STRONG:   WITNESSED BY
 CLNT.            A2DTECH:   CLIENT CODE
 ORIG.           5" PRINT:   ORIGIN OF DATA
 UWI .       490252249300:   UNIQUE WELL ID
 DICO. A2D Technologies, Inc.:   DIGITIZING COMPANY
~OTHER INFORMATION
~A    DEPT      GRR      RFOC       RILD       RILM        SPR   
# ...
  512.4000    85.2420    10.1114     8.0972     9.7930   -44.8032
  512.5000    85.1834    10.1292     8.0572     9.7937   -44.7269
  512.6000    85.1823    10.1825     8.0102     9.7944   -44.7265
  512.7000    85.1229    10.1827     7.9845     9.7779   -44.7258
  512.8000    84.9531    10.1301     7.9845     9.7275   -44.5742
  512.9000    84.9519    10.1121     7.9821     9.7283   -44.4720
  513.0000    84.9508    10.0837     7.9287     9.6273   -44.3450
  513.1000    84.9497    10.0421     7.9287     9.5555   -44.2180
  513.2000    85.1483    10.0374     7.9287     9.5286   -44.0910
  513.3000    85.5269     9.9726     7.9287     9.4955   -43.9624
  513.4000    85.9054     9.9727     7.9287     9.3861   -43.6618
  513.5000    86.3067     9.9728     7.9287     9.2681   -43.5584
  513.6000    86.6627     9.9730     7.9287     9.2199   -43.2752
  513.7000    87.0412     9.9731     7.8893     9.1293   -43.0010
  513.8000    87.3154     9.9732     7.8733     9.0510   -42.8182
  513.9000    87.5041     9.9734     7.8733     8.9990   -42.4408
  514.0000    87.6929     9.9735     7.8733     8.9416   -42.1426
  514.1000    87.8884     9.9737     7.8708     8.8297   -42.0379
  514.2000    88.0703     9.9738     7.8184     8.7835   -41.9110
  514.3000    88.1131     9.9739     7.7793     8.7331   -41.7840
  514.4000    88.1119     9.9741     7.7340     8.6572   -41.6570
  514.5000    88.1108     9.9742     7.7095     8.5731   -41.5261
  514.6000    88.1097     9.9743     7.6979     8.5239   -41.2303
  514.7000    88.1085     9.9745     7.6557     8.4709   -41.2300
  514.8000    88.1074     9.9746     7.6557     8.3816   -41.2297
  514.9000    88.1063     9.9608     7.6174     8.3197   -41.2294
  515.0000    87.9917     9.9032     7.5730     8.2970   -41.2291
  515.1000    87.7242     9.8368     7.5491     8.2822   -41.2288
  515.2000    87.3827     9.8369     7.5376     8.2404   -41.2285
  515.3000    87.1918     9.8010     7.4964     8.2411   -41.3351
  515.4000    86.9658     9.7688     7.4964     8.1536   -41.4614
  515.5000    86.8098     9.7560     7.4588     8.1279   -41.5878
  515.6000    86.5008     9.6997     7.4153     8.1037   -41.7141
  515.7000    86.2818     9.6339     7.3721     8.0724   -41.8534
  515.8000    86.2368     9.5427     7.3291     8.0671   -42.2889
  515.9000    86.0458     9.4665     7.2891     8.0174   -42.3967
  516.0000    85.8548     9.3893     7.2891     7.9319   -42.6889
  516.1000  -999.2500     9.2926     7.2160     7.8739   -43.0107
  516.2000  -999.2500     9.2378     7.1322     7.8287   -43.2637
  516.3000  -999.2500     9.0482     7.0684     7.7689   -43.5014
  516.4000  -999.2500     8.9641     7.0164     7.6852   -43.5010
  516.5000  -999.2500     8.8608     6.9374     7.6381   -43.5008
  516.6000  -999.2500     8.7791     6.8916     7.5563   -43.5005
  516.7000  -999.2500     8.7284     6.8223     7.4694   -43.5001
  516.8000  -999.2500     8.6778     6.7431     7.3834   -43.4998
  516.9000  -999.2500     8.5290     6.7011     7.2984   -43.4906
  517.0000  -999.2500     8.4983     6.6906     7.2086   -43.3474
  517.1000  -999.2500     8.4406     6.6463     7.0764   -43.2368
  517.2000  -999.2500     8.3433     6.5158     7.0002   -43.1098
  517.3000  -999.2500     8.2559     6.4176     6.8609   -42.9828
  517.4000  -999.2500     8.2074     6.3306     6.7242   -42.8206
  517.5000  -999.2500     8.1609     6.2401     6.6081   -42.5670
  517.6000  -999.2500     8.0774     6.1221     6.4888   -42.2834
  517.7000  -999.2500     8.0377     5.9804     6.3310   -41.9482
  517.8000  -999.2500     8.0205     5.8245     6.2624   -41.6544
  517.9000  -999.2500     7.9664     5.6788     6.1375   -41.3393
  518.0000  -999.2500     7.8716     5.4731     5.9967   -40.9590
  518.1000  -999.2500     7.8276     5.2821     5.8589   -40.5786
  518.2000  -999.2500     7.8170     5.1218     5.7241   -40.1572
  518.3000  -999.2500     7.7917     4.9448     5.5856   -39.9311
  518.4000  -999.2500     7.7308     4.7531     5.4945   -39.5018
  518.5000  -999.2500     7.6485     4.6106     5.3535   -39.1203
  518.6000  -999.2500     7.6023     4.4519     5.1679   -38.8291
  518.7000  -999.2500     7.5605     4.2869     4.9422   -38.4490
  518.8000  -999.2500     7.4844     4.1276     4.6971   -38.0309
  518.9000  -999.2500     7.4216     4.0068     4.5003   -37.6883
  519.0000  -999.2500     7.3641     3.8517     4.2366   -37.4861
  519.1000  -999.2500     7.2558     3.7739     3.9917   -37.2313
  519.2000  -999.2500     6.9923     3.6301     3.6976   -36.9287
  519.3000  -999.2500     6.8052     3.4457     3.4344   -36.8017
  519.4000  -999.2500     6.6671     3.2597     3.3135   -36.6634
  519.5000  -999.2500     6.5322     3.1102     3.1753   -36.4325
  519.6000  -999.2500     6.4187     2.9511     3.0717   -36.2691
  519.7000  -999.2500     6.3723     2.8476     2.9925   -36.2073
  519.8000  -999.2500     6.2542     2.7658     2.9238   -36.1669
  519.9000  -999.2500     6.1547     2.7169     2.8684   -36.0400
  520.0000  -999.2500     6.0739     2.6853     2.8354   -35.9029
  520.1000  -999.2500     5.9683     2.6553     2.8015   -35.7860
  520.2000  -999.2500     5.8106     2.6380     2.7860   -35.7505
  520.3000  -999.2500     5.6114     2.6245     2.7823   -35.6839
  520.4000  -999.2500     5.4022     2.6092     2.7825   -35.5982
  520.5000  -999.2500     5.2074     2.5940     2.7827   -35.5979
  520.6000  -999.2500     5.0208     2.5831     2.7829   -35.5975
  520.7000  -999.2500     4.8491     2.5831     2.7831   -35.5973
  520.8000  -999.2500     4.7071     2.5831     2.7990   -35.5970
  520.9000  -999.2500     4.6233     2.5831     2.8030   -35.5967
  521.0000  -999.2500     4.5063     2.5831     2.8032   -35.5963
  521.1000  -999.2500     4.3913     2.5831     2.8095   -35.5960
  521.2000  -999.2500     4.2829     2.5874     2.8260   -35.5957
  521.3000  -999.2500     4.1731     2.6013     2.8432   -35.7144
  521.4000  -999.2500     4.0537     2.6013     2.8596   -35.7469
  521.5000  -999.2500     3.9394     2.6013     2.8765   -35.8154
  521.6000  -999.2500     3.8385     2.6117     2.8935   -35.9417
  521.7000  -999.2500     3.7611     2.6270     2.9169   -36.0681
  521.8000  -999.2500     3.6893     2.6380     2.9483   -36.2009
  521.9000  -999.2500     3.6257     2.6393     2.9661   -36.2006
  522.0000  -999.2500     3.5800     2.6565     3.0174   -36.2954
  522.1000  -999.2500     3.5800     2.6565     3.0569   -36.3517
  522.2000  -999.2500     3.5801     2.6781     3.1140   -36.4413
  522.3000  -999.2500     3.5801     2.7096     3.1876   -36.6744
  522.4000  -999.2500     3.5802     2.7367     3.2629   -36.8061
  522.5000  -999.2500     3.5995     2.7542     3.3414   -36.8058
  522.6000  -999.2500     3.6415     2.7901     3.3994   -36.9018
  522.7000  -999.2500     3.6864     2.8047     3.4756   -37.0282
  522.8000  -999.2500     3.7859     2.8098     3.5577   -37.2006
  522.9000  -999.2500     3.8427     2.8179     3.6501   -37.4116
  523.0000  -999.2500     3.9252     2.8393     3.7706   -37.4112
  523.1000  -999.2500     4.0280     2.8726     3.9527   -37.5336
  523.2000  -999.2500     4.1464     2.9100     4.0684   -37.7574
  523.3000  -999.2500     4.2746     2.9560     4.1505   -37.9380
  523.4000  -999.2500     4.6032     3.0083     4.2533   -38.0643
  523.5000  -999.2500     4.7873     3.0705     4.3792   -38.1907
  523.6000  -999.2500     5.0341     3.1431     4.5087   -38.3199
  523.7000  -999.2500     5.3177     3.2227     4.6433   -38.5672
  523.8000  -999.2500     5.6665     3.3715     4.8076   -38.6228
  523.9000  -999.2500     6.1469     3.4980     4.9560   -38.7697
  524.0000  -999.2500     6.9970     3.7057     5.1029   -39.0227
  524.1000  -999.2500     7.4154     3.9397     5.2295   -39.2523
  524.2000  -999.2500     7.6913     4.1461     5.3281   -39.3803
  524.3000  -999.2500     7.8072     4.2886     5.4545   -39.6302
  524.4000  -999.2500     7.8786     4.4004     5.5831   -39.8831
  524.5000  -999.2500     7.8781     4.4469     5.7420   -40.1360
