~VERSION INFORMATION
 VERS.                2.0:   CWLS LOG ASCII STANDARD - VERSION 2.0
 WRAP.                 NO:   ONE LINE PER DEPTH STEP
~WELL INFORMATION
#MNEM.UNIT      DATA TYPE    INFORMATION
#----------   ------------   ------------------------------
 STRT.F            0.0000:   START DEPTH
 STOP.F          540.0000:   STOP DEPTH
 STEP.F            0.1000:   STEP LENGTH
 NULL.          -999.2500:   NO VALUE
 COMP.       F D SERV INC:   COMPANY
 WELL.      77-1 X3 #77-3:   WELL
 FLD .             TEAPOT:   FIELD
 LOC .       S3 T38N R78W:   LOCATION
 CNTY.            NATRONA:   COUNTY
 STAT.            WYOMING:   STATE
 CTRY. UNITED STATES OF AMERICA:   COUNTRY
 SRVC.     Atlas Wireline:   SERVICE COMPANY
 DATE.        20-DEC-1991:   LOGDATE
 API .       490252249300:   API NUMBER
~CURVE INFORMATION
#MNEM.UNIT       API CODE    CURVE DESCRIPTION
#----------   ------------   ------------------------------
 DEPT.F                  :   
 GRR .GAPI   07 310 01 00:   GAMMA RAY
 RFOC.OHMM   07 270 04 00:   RESISTIVITY FOCUSED LOG
 RILD.OHMM   07 120 46 00:   INDUCTION LOG DEEP RESISTIVITY
 RILM.OHMM   07 120 44 00:   INDUCTION LOG MEDIUM RESISTIVITY
 SPR .MV     07 010 01 00:   SPONTANEOUS POTENTIAL
~PARAMETER INFORMATION
#MNEM.UNIT          VALUE    DESCRIPTION
#----------   ------------   ------------------------------
 PD  .                 GL:   PERMANENT DATUM
 EPD .F              5161:   ELEVATION PERMANENT DATUM
 LMF .                 KB:   LOG MEASURED FROM
 DAPD.F                10:   FEET ABOVE PERMANENT DATUM
 DMF .                 KB:   DRILLING MEASURED FROM
 EKB .F              5171:   KELLING BUSHING
 EGL .F              5161:   GROUND LEVEL
 DATE.        20-DEC-1991:   RUN DATE
 RUN .                  1:   RUN NUMBER
 DD  .F               545:   DEPTH DRILLER
 DL  .F               543:   DEPTH LOGGER
 BLI .F               540:   BOTTOM LOG INTERVAL
 CS  .IN            8.625:   CASING SIZE
 CBD .F               175:   CASING BOTTOM DRILLER
 CBL .F               172:   CASING BOTTOM LOGGER
 BS  .IN            7.875:   BIT SIZE
 BSD .F               545:   BIT SIZE AT DEPTH
 DFT .           CHEM GEL:   DRILLING FLUID TYPE
 DFD .               16.8:   DRILLING FLUID DENSITY
 DFV .                 53:   DRILLING FLUID VISCOSITY
 DFPH.                  9:   DRILLING FLUID PH
 DFL .                  8:   DRILLING FLUID LOSS
 MSS .           FLOWLINE:   MUD SAMPLE SOURCE
 RMS .OHMM           1.55:   RESISTIVITY MUD SAMPLE
 MST .F                58:   MUD SAMPLE TEMPERATURE
 RMF .OHMM           1.16:   RESISTIVITY MUD FILTRATE SAMPLE
 MFST.F                58:   MUD FILTRATE SAMPLE TEMPERATURE
 RMC .OHMM           1.93:   RESISTIVITY MUD CAKE
 MCST.F                58:   MUD CAKE SAMPLE TEMPERATURE
 MFSS.               CALC:   MUD FILTRATE SAMPLE SOURCE
 MCSS.               CALC:   MUD CAKE SAMPLE SOURCE
 TCS .HRS               2:   TIME CURCULATED STOPPED
 MRT .F               100:   MAXIMUM RECORDED TEMPERATURE
 LUN .            HL 6307:   LOGGING UNIT NUMBER
 LUL .             CASPER:   LOGGING UNIT LOCATION
 ENGI.            WADDELL:   RECORDING ENGINEER
 WITN.             STRONG:   WITNESSED BY
 CLNT.            A2DTECH:   CLIENT CODE
 ORIG.           5" PRINT:   ORIGIN OF DATA
 UWI .       490252249300:   UNIQUE WELL ID
 DICO. A2D Technologies, Inc.:   DIGITIZING COMPANY
~OTHER INFORMATION
~A    DEPT      GRR      RFOC       RILD       RILM        SPR   
# ...
  305.0000    48.4247     5.2605     3.3526     3.8489    54.3500
  305.1000    48.5548     5.2414     3.3723     3.8527    54.5395
  305.2000    48.8377     5.1982     3.3952     3.8764    54.6282
  305.3000    49.1651     5.1456     3.3952     3.8767    54.6521
  305.4000    49.3891     5.1136     3.4083     3.8770    54.9317
  305.5000    50.0252     5.0119     3.4284     3.8772    55.0443
  305.6000    50.3641     4.9634     3.4485     3.8775    55.1705
  305.7000    50.8772     4.8882     3.4673     3.8778    55.2352
  305.8000    51.5431     4.8163     3.4673     3.8780    55.2352
  305.9000    52.4738     4.7542     3.4673     3.8783    55.2352
  306.0000    53.7717     4.6721     3.4813     3.8786    55.2352
  306.1000    54.8224     4.5796     3.4917     3.8788    55.2352
  306.2000    55.5073     4.5799     3.4917     3.8791    55.3207
  306.3000    55.8699     4.5803     3.4917     3.8794    55.3870
  306.4000    56.1564     4.5807     3.4917     3.8797    55.3526
  306.5000    56.4224     4.5946     3.4917     3.8799    55.2352
  306.6000    56.4228     4.6502     3.4917     3.8802    55.2352
  306.7000    56.4233     4.7446     3.4917     3.8805    55.2352
  306.8000    56.4237     4.8164     3.4917     3.8807    55.2352
  306.9000    56.2890     4.9206     3.4917     3.8843    55.1768
  307.0000    56.0989     5.0233     3.4917     3.9085    55.0835
  307.1000    55.9088     5.1199     3.4917     3.9088    55.0688
  307.2000    55.7406     5.2353     3.4917     3.9090    54.7800
  307.3000    55.7411     5.2707     3.4917     3.9093    54.6720
  307.4000    55.5668     5.3510     3.4917     3.9096    54.6282
  307.5000    55.5137     5.4038     3.4885     3.9130    54.5713
  307.6000    55.4149     5.4212     3.4673     3.9375    54.3824
  307.7000    55.2863     5.4299     3.4673     3.9378    54.0154
  307.8000    55.2868     5.4601     3.4673     3.9550    53.8695
  307.9000    55.2872     5.4606     3.4673     3.9659    53.5500
  308.0000    55.2877     5.4610     3.4751     3.9662    53.3333
  308.1000    55.4270     5.4404     3.4917     3.9665    53.0964
  308.2000    55.7191     5.4093     3.4917     3.9668    52.6878
  308.3000    56.3540     5.3701     3.4917     3.9670    52.1874
  308.4000    57.5993     5.3083     3.4917     3.9673    51.7451
  308.5000    59.0615     5.2393     3.4917     3.9799    51.4302
  308.6000    60.7247     5.1611     3.5002     3.9880    50.9722
  308.7000    62.1402     5.0723     3.5163     3.9681    50.5213
  308.8000    63.3938     4.9849     3.5163     3.9685    50.1143
  308.9000    64.7281     4.9066     3.5163     3.9473    49.6012
  309.0000    66.3730     4.8522     3.4992     3.9247    48.5584
  309.1000    68.3448     4.8209     3.4917     3.9142    47.7309
  309.2000    70.3854     4.8213     3.4917     3.9145    47.0329
  309.3000    72.1886     4.8217     3.4917     3.9119    46.5282
  309.4000    73.6355     4.8355     3.4907     3.8878    46.0232
  309.5000    74.7315     4.9040     3.4673     3.8465    45.5184
  309.6000    75.4740     5.0712     3.4673     3.8183    44.9165
  309.7000    76.0460     5.1719     3.4406     3.7850    44.6107
  309.8000    76.5586     5.3342     3.4191     3.7415    44.2321
  309.9000    76.7576     5.4368     3.4136     3.7010    43.8535
  310.0000    76.9406     5.5009     3.3952     3.6781    43.4749
  310.1000    77.1317     5.5475     3.3952     3.6784    43.0956
  310.2000    77.1083     5.5480     3.3952     3.6633    42.8437
  310.3000    76.8488     5.5485     3.3952     3.6533    42.4909
  310.4000    76.4366     5.5489     3.3952     3.6535    42.1123
  310.5000    75.8470     5.5055     3.3952     3.6563    41.6843
  310.6000    75.1097     5.4575     3.3973     3.6797    41.2034
  310.7000    74.2010     5.4174     3.4191     3.6799    40.8194
  310.8000    72.7036     5.3421     3.4191     3.6955    40.4462
  310.9000    71.0123     5.1054     3.4336     3.7173    39.8698
  311.0000    69.7126     4.8511     3.4538     3.7392    39.2387
  311.1000    68.5438     4.7242     3.4673     3.7613    38.6555
  311.2000    66.3087     4.6699     3.4701     3.7855    38.1508
  311.3000    65.6565     4.6085     3.4917     3.8058    37.6328
  311.4000    65.4663     4.5244     3.4917     3.8283    37.1411
  311.5000    65.2762     4.3811     3.5071     3.8624    36.6363
  311.6000    65.1214     4.3587     3.5163     3.8938    36.1315
  311.7000    65.1219     4.3513     3.5163     3.8965    35.6267
  311.8000    64.9343     4.3517     3.5163     3.9216    35.1219
  311.9000    65.0449     4.3520     3.5163     3.9219    34.5979
  312.0000    65.1233     4.3548     3.5163     3.9222    34.1123
  312.1000    65.1237     4.3833     3.5003     3.9339    33.6075
  312.2000    65.1242     4.4297     3.4917     3.9502    33.0324
  312.3000    65.1247     4.4637     3.4917     3.9505    32.4462
  312.4000    65.1251     4.4901     3.4917     3.9508    31.9606
  312.5000    64.9734     4.5246     3.4917     3.9510    31.5630
  312.6000    64.7832     4.5779     3.4917     3.9353    31.0834
  312.7000    64.5164     4.6372     3.4753     3.9241    30.6730
  312.8000    64.1357     4.7113     3.4673     3.9243    30.2944
  312.9000    63.7526     4.7751     3.4673     3.9246    29.9157
  313.0000    62.8448     4.8314     3.4673     3.9249    29.4840
  313.1000    62.2291     4.8971     3.4667     3.9048    28.6798
  313.2000    61.5836     4.9774     3.4431     3.8981    27.9697
  313.3000    61.1694     5.0097     3.4263     3.8872    27.2124
  313.4000    60.8977     5.0366     3.4191     3.8650    26.5225
  313.5000    60.3325     5.0874     3.4101     3.8428    25.8915
  313.6000    60.1078     5.1321     3.3902     3.8184    25.2280
  313.7000    59.6407     5.1531     3.3715     3.8186    24.2792
  313.8000    59.1875     5.1438     3.3715     3.8036    23.4614
  313.9000    58.8068     5.0473     3.3544     3.7926    22.5780
  314.0000    58.4688     5.0210     3.3348     3.7865    21.8261
  314.1000    58.2738     5.0130     3.3153     3.7648    21.1950
  314.2000    57.8275     4.9837     3.3013     3.7408    20.5492
  314.3000    57.6702     4.9264     3.3013     3.7218    19.7269
  314.4000    57.4801     4.8633     3.3013     3.7153    18.9194
  314.5000    57.2900     4.7424     3.2841     3.7155    18.0361
  314.6000    57.0999     4.6677     3.2782     3.7158    17.0243
  314.7000    56.9097     4.6256     3.2686     3.7143    15.9272
  314.8000    56.6887     4.5992     3.2495     3.6905    14.9044
  314.9000    56.6890     4.5814     3.2326     3.6907    13.6571
  315.0000    56.6895     4.5785     3.2326     3.6764    12.4052
  315.1000    56.6900     4.5503     3.2152     3.6554    10.9287
  315.2000    56.6904     4.5506     3.2100     3.6403     9.7279
  315.3000    56.6994     4.5510     3.2000     3.6389     7.9521
  315.4000    56.9197     4.5653     3.1876     3.6155     4.3308
  315.5000    57.0815     4.5837     3.1849     3.6157     3.4901
  315.6000    57.2724     4.5874     3.1653     3.6160     2.7041
  315.7000    57.7209     4.6165     3.1653     3.6162     1.6471
  315.8000    58.3394     4.6419     3.1514     3.6165    -0.0958
  315.9000    58.6030     4.6892     3.1432     3.6167    -1.3657
  316.0000    60.3471     4.7299     3.1432     3.6170    -5.3723
  316.1000    60.8370     4.7488     3.1432     3.6172    -7.0858
  316.2000    61.1583     4.7528     3.1432     3.6316    -7.5847
  316.3000    61.2616     4.7829     3.1432     3.6531    -8.4235
  316.4000    61.2122     4.8354     3.1432     3.6746    -9.8390
  316.5000    61.0342     4.8509     3.1541     3.6963   -11.8361
  316.6000    61.0348     4.8663     3.1727     3.7210   -13.5922
  316.7000    60.5401     4.8856     3.1876     3.7212   -14.7693
  316.8000    59.9689     4.8860     3.1876     3.7360   -15.4092
  316.9000    59.2188     4.8865     3.1876     3.7580   -16.0134
  317.0000    58.3183     4.8869     3.2029     3.7802   -16.9044
  317.1000    57.5423     4.8873     3.2217     3.8025   -18.0577
