~VERSION INFORMATION
 VERS.                2.0:   CWLS LOG ASCII STANDARD - VERSION 2.0
 WRAP.                 NO:   ONE LINE PER DEPTH STEP
~WELL INFORMATION
#MNEM.UNIT      DATA TYPE    INFORMATION
#----------   ------------   ------------------------------
 STRT.F            0.0000:   START DEPTH
 STOP.F          540.0000:   STOP DEPTH
 STEP.F            0.1000:   STEP LENGTH
 NULL.          -999.2500:   NO VALUE
 COMP.       F D SERV INC:   COMPANY
 WELL.      77-1 X3 #77-3:   WELL
 FLD .             TEAPOT:   FIELD
 LOC .       S3 T38N R78W:   LOCATION
 CNTY.            NATRONA:   COUNTY
 STAT.            WYOMING:   STATE
 CTRY. UNITED STATES OF AMERICA:   COUNTRY
 SRVC.     Atlas Wireline:   SERVICE COMPANY
 DATE.        20-DEC-1991:   LOGDATE
 API .       490252249300:   API NUMBER
~CURVE INFORMATION
#MNEM.UNIT       API CODE    CURVE DESCRIPTION
#----------   ------------   ------------------------------
 DEPT.F                  :   
 GRR .GAPI   07 310 01 00:   GAMMA RAY
 RFOC.OHMM   07 270 04 00:   RESISTIVITY FOCUSED LOG
 RILD.OHMM   07 120 46 00:   INDUCTION LOG DEEP RESISTIVITY
 RILM.OHMM   07 120 44 00:   INDUCTION LOG MEDIUM RESISTIVITY
 SPR .MV     07 010 01 00:   SPONTANEOUS POTENTIAL
~PARAMETER INFORMATION
#MNEM.UNIT          VALUE    DESCRIPTION
#----------   ------------   ------------------------------
 PD  .                 GL:   PERMANENT DATUM
 EPD .F              5161:   ELEVATION PERMANENT DATUM
 LMF .                 KB:   LOG MEASURED FROM
 DAPD.F                10:   FEET ABOVE PERMANENT DATUM
 DMF .                 KB:   DRILLING MEASURED FROM
 EKB .F              5171:   KELLING BUSHING
 EGL .F              5161:   GROUND LEVEL
 DATE.        20-DEC-1991:   RUN DATE
 RUN .                  1:   RUN NUMBER
 DD  .F               545:   DEPTH DRILLER
 DL  .F               543:   DEPTH LOGGER
 BLI .F               540:   BOTTOM LOG INTERVAL
 CS  .IN            8.625:   CASING SIZE
 CBD .F               175:   CASING BOTTOM DRILLER
 CBL .F               172:   CASING BOTTOM LOGGER
 BS  .IN            7.875:   BIT SIZE
 BSD .F               545:   BIT SIZE AT DEPTH
 DFT .           CHEM GEL:   DRILLING FLUID TYPE
 DFD .               16.8:   DRILLING FLUID DENSITY
 DFV .                 53:   DRILLING FLUID VISCOSITY
 DFPH.                  9:   DRILLING FLUID PH
 DFL .                  8:   DRILLING FLUID LOSS
 MSS .           FLOWLINE:   MUD SAMPLE SOURCE
 RMS .OHMM           1.55:   RESISTIVITY MUD SAMPLE
 MST .F                58:   MUD SAMPLE TEMPERATURE
 RMF .OHMM           1.16:   RESISTIVITY MUD FILTRATE SAMPLE
 MFST.F                58:   MUD FILTRATE SAMPLE TEMPERATURE
 RMC .OHMM           1.93:   RESISTIVITY MUD CAKE
 MCST.F                58:   MUD CAKE SAMPLE TEMPERATURE
 MFSS.               CALC:   MUD FILTRATE SAMPLE SOURCE
 MCSS.               CALC:   MUD CAKE SAMPLE SOURCE
 TCS .HRS               2:   TIME CURCULATED STOPPED
 MRT .F               100:   MAXIMUM RECORDED TEMPERATURE
 LUN .            HL 6307:   LOGGING UNIT NUMBER
 LUL .             CASPER:   LOGGING UNIT LOCATION
 ENGI.            WADDELL:   RECORDING ENGINEER
 WITN.             STRONG:   WITNESSED BY
 CLNT.            A2DTECH:   CLIENT CODE
 ORIG.           5" PRINT:   ORIGIN OF DATA
 UWI .       490252249300:   UNIQUE WELL ID
 DICO. A2D Technologies, Inc.:   DIGITIZING COMPANY
~OTHER INFORMATION
~A    DEPT      GRR      RFOC       RILD       RILM        SPR   
# ...
  170.8000    57.9276  -999.2500  -999.2500  -999.2500  -999.2500
  170.9000    59.1306  -999.2500  -999.2500  -999.2500  -999.2500
  171.0000    60.7916  -999.2500  -999.2500  -999.2500  -999.2500
  171.1000    62.2221  -999.2500  -999.2500  -999.2500  -999.2500
  171.2000    63.1013  -999.2500  -999.2500  -999.2500  -999.2500
  171.3000    63.9157  -999.2500  -999.2500  -999.2500  -999.2500
  171.4000    64.5790  -999.2500  -999.2500  -999.2500  -999.2500
  171.5000    65.3289  -999.2500  -999.2500  -999.2500  -999.2500
  171.6000    66.4487  -999.2500  -999.2500  -999.2500  -999.2500
  171.7000    67.4898  -999.2500  -999.2500  -999.2500  -999.2500
  171.8000    68.5223  -999.2500  -999.2500  -999.2500  -999.2500
  171.9000    69.2639  -999.2500  -999.2500  -999.2500  -999.2500
  172.0000    69.5525     5.6469     3.9151     4.0426    27.3556
  172.1000    69.5552     5.5826     3.3693     3.7664    27.8130
  172.2000    69.5580     5.5447     2.9605     3.6638    28.4083
  172.3000    69.5610     5.5192     2.7099     3.6242    29.0412
  172.4000    69.5635     5.4877     2.5994     3.6016    29.6742
  172.5000    69.3075     5.4565     2.5399     3.5831    30.2943
  172.6000    68.9309     5.4253     2.4964     3.5771    30.8511
  172.7000    68.4502     5.3942     2.4425     3.5981    31.1931
  172.8000    67.6810     5.3946     2.3867     3.7042    31.5728
  172.9000    66.6095     5.3704     2.3470     3.9782    31.8894
  173.0000    65.6256     5.3579     2.3356     4.4124    32.1047
  173.1000    63.8618     5.3583     2.4354     4.8189    32.2313
  173.2000    61.8655     5.3587     2.6173     5.2553    32.3708
  173.3000    60.2137     5.3591     3.0334     5.7497    32.4845
  173.4000    59.2682     5.3594     3.5502     6.3006    32.6111
  173.5000    58.1785     5.3598     4.0452     6.7707    32.6343
  173.6000    57.5379     5.3602     4.4457     6.9996    32.6337
  173.7000    56.7820     5.3605     4.8248     7.1410    32.6330
  173.8000    56.1096     5.3609     5.2503     7.2814    32.6325
  173.9000    55.5434     5.3613     5.8576     7.4686    32.6319
  174.0000    54.9953     5.3916     6.6544     7.7331    32.5220
  174.1000    54.9986     5.4233     7.5160     8.0119    32.2982
  174.2000    54.8438     5.4551     8.1570     8.5159    32.1716
  174.3000    54.7753     5.4872     8.4304     8.7680    32.0223
  174.4000    54.7781     5.5242     8.5562     8.9796    31.9183
  174.5000    54.7808     5.5923     8.6405     9.1153    31.7137
  174.6000    54.7836     5.6544     8.7123     9.2224    31.5132
  174.7000    54.7868     5.6960     8.8131     9.3293    31.3335
  174.8000    54.9425     5.7475     8.9133     9.3304    30.9556
  174.9000    55.0201     5.8033     8.9131     9.3311    30.6530
  175.0000    55.0228     5.8329     8.8716     9.2352    30.4502
  175.1000    55.0256     5.8333     8.6426     9.0358    30.2729
  175.2000    55.0283     5.8337     8.2120     8.7591    30.0468
  175.3000    55.0310     5.8240     7.6314     8.4063    29.7161
  175.4000    55.0338     5.8399     6.9325     7.9872    29.5879
  175.5000    55.0365     5.8606     6.2438     7.0437    29.2139
  175.6000    55.0393     5.8612     5.8151     6.1543    29.0327
  175.7000    55.0420     5.8619     5.6090     5.5688    28.8330
  175.8000    55.0448     5.8219     5.5020     5.2892    28.6276
  175.9000    55.0475     5.8224     5.3840     5.1951    28.5010
  176.0000    55.0502     5.7811     5.3171     5.1380    28.3702
  176.1000    55.0530     5.7288     5.2610     5.1240    28.2477
  176.2000    55.0557     5.6886     5.2006     5.1081    28.1210
  176.3000    55.0584     5.6233     5.1408     5.0791    27.9943
  176.4000    55.0613     5.5481     5.0901     5.0502    27.9126
  176.5000    55.0639     5.4685     5.0584     5.0197    27.8928
  176.6000    55.0667     5.3351     4.9928     4.9929    27.7596
  176.7000    55.0694     5.1955     4.9677     4.9857    27.6395
  176.8000    55.0070     5.0832     4.9390     4.9861    27.5128
  176.9000    54.8201     4.9955     4.9105     4.9866    27.3861
  177.0000    54.6212     4.8965     4.8821     4.9871    27.2595
  177.1000    54.2688     4.8489     4.8539     4.9876    27.1496
  177.2000    53.8922     4.8296     4.8209     4.9616    27.1490
  177.3000    53.5157     4.8174     4.8208     4.9538    26.9141
  177.4000    53.2621     4.7971     4.8037     4.9542    26.7529
  177.5000    53.2420     4.7977     4.7871     4.9547    26.6920
  177.6000    53.0395     4.7983     4.7816     4.9579    26.6513
  177.7000    52.8682     4.8230     4.7536     4.9904    26.5246
  177.8000    52.6813     4.8329     4.7535     4.9908    26.3866
  177.9000    52.5909     4.8334     4.7746     4.9913    26.2713
  178.0000    52.5936     4.8340     4.8022     4.9917    26.1447
  178.1000    52.5963     4.8366     4.8298     5.0083    26.0180
  178.2000    52.5994     4.8690     4.8659     5.0650    25.8537
  178.3000    52.6018     4.8694     4.9561     5.0989    25.6130
  178.4000    52.4731     4.9089     5.0099     5.1431    25.4725
  178.5000    52.3790     4.9529     5.0679     5.1793    25.3596
  178.6000    52.3817     4.9824     5.1420     5.2256    25.0597
  178.7000    52.3845     5.0147     5.2222     5.2774    24.8028
  178.8000    52.3876     5.0805     5.2826     5.3052    24.6057
  178.9000    52.5565     5.1342     5.3507     5.3057    24.2460
  179.0000    52.6210     5.2162     5.3233     5.3061    24.1031
  179.1000    52.6237     5.3088     5.3133     5.3065    23.7730
  179.2000    52.6770     5.4030     5.3132     5.3070    23.3942
  179.3000    52.8694     5.4954     5.3130     5.3074    23.0740
  179.4000    53.0890     5.5666     5.3159     5.3079    22.7885
  179.5000    53.2542     5.6264     5.3874     5.3084    22.4168
  179.6000    53.3224     5.6930     5.4135     5.3363    22.1268
  179.7000    53.5818     5.7260     5.4846     5.3895    21.9114
  179.8000    54.0597     5.7372     5.5665     5.4374    21.6587
  179.9000    54.2602     5.7754     5.6309     5.4786    21.4060
  180.0000    54.7036     5.8492     5.6961     5.5404    21.1836
  180.1000    54.8652     5.8813     5.6770     5.5771    21.0476
  180.2000    55.0575     5.8914     5.7356     5.6060    20.6057
  180.3000    55.1680     5.8920     5.7722     5.6391    20.6052
  180.4000    55.1708     5.8814     5.8906     5.6881    20.5252
  180.5000    55.1735     5.8523     5.8906     5.7369    20.3986
  180.6000    54.9484     5.8531     5.8907     5.7396    20.2719
  180.7000    54.9507     5.8537     5.8908     5.7782    20.1453
  180.8000    54.9534     5.8293     5.8909     5.7786    19.9950
  180.9000    54.9562     5.7960     5.8910     5.7791    19.9945
  181.0000    54.9589     5.7745     5.8911     5.7949    19.9170
  181.1000    54.9626     5.7752     5.8911     5.8292    19.8416
  181.2000    55.1932     5.7758     5.8912     5.8636    19.8410
  181.3000    55.1954     5.7764     5.8913     5.9035    19.8404
  181.4000    55.1982     5.8025     5.8914     5.9331    19.7139
  181.5000    55.2009     5.8371     5.8915     5.9457    19.6874
  181.6000    55.1677     5.8718     5.8916     5.9616    19.6868
  181.7000    54.9781     5.9013     5.8916     5.9884    19.6862
  181.8000    54.9808     5.9019     5.8917     5.9902    19.7087
  181.9000    54.6871     5.9026     5.8918     6.0315    19.8367
  182.0000    54.4201     5.9297     5.8943     6.0612    19.8361
  182.1000    54.2332     5.9650     5.9038     6.0970    19.8355
  182.2000    54.0140     6.0006     5.9133     6.1178    19.9069
  182.3000    53.6248     6.0301     5.9228     6.1263    19.9860
  182.4000    53.6274     6.0308     5.9337     6.1617    20.0061
  182.5000    53.6301     6.0660     5.9636     6.1623    20.1365
  182.6000    53.6329     6.0744     5.9756     6.1627    20.2570
  182.7000    53.6356     6.0751     5.9756     6.1632    20.2871
  182.8000    53.6670     6.0895     5.9849     6.1637    20.2865
  182.9000    53.8696     6.1190     6.0178     6.1642    20.2859
