~VERSION INFORMATION
 VERS.                2.0:   CWLS LOG ASCII STANDARD - VERSION 2.0
 WRAP.                 NO:   ONE LINE PER DEPTH STEP
~WELL INFORMATION
#MNEM.UNIT      DATA TYPE    INFORMATION
#----------   ------------   ------------------------------
 STRT.F            0.0000:   START DEPTH
 STOP.F          540.0000:   STOP DEPTH
 STEP.F            0.1000:   STEP LENGTH
 NULL.          -999.2500:   NO VALUE
 COMP.       F D SERV INC:   COMPANY
 WELL.      77-1 X3 #77-3:   WELL
 FLD .             TEAPOT:   FIELD
 LOC .       S3 T38N R78W:   LOCATION
 CNTY.            NATRONA:   COUNTY
 STAT.            WYOMING:   STATE
 CTRY. UNITED STATES OF AMERICA:   COUNTRY
 SRVC.     Atlas Wireline:   SERVICE COMPANY
 DATE.        20-DEC-1991:   LOGDATE
 API .       490252249300:   API NUMBER
~CURVE INFORMATION
#MNEM.UNIT       API CODE    CURVE DESCRIPTION
#----------   ------------   ------------------------------
 DEPT.F                  :   
 GRR .GAPI   07 310 01 00:   GAMMA RAY
 RFOC.OHMM   07 270 04 00:   RESISTIVITY FOCUSED LOG
 RILD.OHMM   07 120 46 00:   INDUCTION LOG DEEP RESISTIVITY
 RILM.OHMM   07 120 44 00:   INDUCTION LOG MEDIUM RESISTIVITY
 SPR .MV     07 010 01 00:   SPONTANEOUS POTENTIAL
~PARAMETER INFORMATION
#MNEM.UNIT          VALUE    DESCRIPTION
#----------   ------------   ------------------------------
 PD  .                 GL:   PERMANENT DATUM
 EPD .F              5161:   ELEVATION PERMANENT DATUM
 LMF .                 KB:   LOG MEASURED FROM
 DAPD.F                10:   FEET ABOVE PERMANENT DATUM
 DMF .                 KB:   DRILLING MEASURED FROM
 EKB .F              5171:   KELLING BUSHING
 EGL .F              5161:   GROUND LEVEL
 DATE.        20-DEC-1991:   RUN DATE
 RUN .                  1:   RUN NUMBER
 DD  .F               545:   DEPTH DRILLER
 DL  .F               543:   DEPTH LOGGER
 BLI .F               540:   BOTTOM LOG INTERVAL
 CS  .IN            8.625:   CASING SIZE
 CBD .F               175:   CASING BOTTOM DRILLER
 CBL .F               172:   CASING BOTTOM LOGGER
 BS  .IN            7.875:   BIT SIZE
 BSD .F               545:   BIT SIZE AT DEPTH
 DFT .           CHEM GEL:   DRILLING FLUID TYPE
 DFD .               16.8:   DRILLING FLUID DENSITY
 DFV .                 53:   DRILLING FLUID VISCOSITY
 DFPH.                  9:   DRILLING FLUID PH
 DFL .                  8:   DRILLING FLUID LOSS
 MSS .           FLOWLINE:   MUD SAMPLE SOURCE
 RMS .OHMM           1.55:   RESISTIVITY MUD SAMPLE
 MST .F                58:   MUD SAMPLE TEMPERATURE
 RMF .OHMM           1.16:   RESISTIVITY MUD FILTRATE SAMPLE
 MFST.F                58:   MUD FILTRATE SAMPLE TEMPERATURE
 RMC .OHMM           1.93:   RESISTIVITY MUD CAKE
 MCST.F                58:   MUD CAKE SAMPLE TEMPERATURE
 MFSS.               CALC:   MUD FILTRATE SAMPLE SOURCE
 MCSS.               CALC:   MUD CAKE SAMPLE SOURCE
 TCS .HRS               2:   TIME CURCULATED STOPPED
 MRT .F               100:   MAXIMUM RECORDED TEMPERATURE
 LUN .            HL 6307:   LOGGING UNIT NUMBER
 LUL .             CASPER:   LOGGING UNIT LOCATION
 ENGI.            WADDELL:   RECORDING ENGINEER
 WITN.             STRONG:   WITNESSED BY
 CLNT.            A2DTECH:   CLIENT CODE
 ORIG.           5" PRINT:   ORIGIN OF DATA
 UWI .       490252249300:   UNIQUE WELL ID
 DICO. A2D Technologies, Inc.:   DIGITIZING COMPANY
~OTHER INFORMATION
~A    DEPT      GRR      RFOC       RILD       RILM        SPR   
# ...
  463.6000    82.4201     9.9079     8.8078    10.0087   -46.8479
  463.7000    82.4201     9.9731     8.8078    10.0094   -46.8476
  463.8000    82.2548     9.9732     8.8697    10.0101   -46.8473
  463.9000    81.9382    10.0122     8.8697    10.0290   -46.8470
  464.0000    81.5586    10.0433     8.8697    10.0817   -46.8467
  464.1000    81.2287    10.0588     8.8697    10.0824   -46.8464
  464.2000    81.0502    10.1140     8.8697    10.1368   -46.8461
  464.3000    81.0502    10.1141     8.8697    10.1968   -46.8458
  464.4000    80.7252    10.1142     8.8727    10.2263   -46.8455
  464.5000    80.4696    10.1529     8.9321    10.2459   -46.8452
  464.6000    80.2798    10.1853     8.9770    10.2994   -46.8449
  464.7000    80.1370    10.1855     9.0297    10.3002   -46.8446
  464.8000    80.1370    10.1856     9.0582    10.3008   -46.8443
  464.9000    80.1370    10.1858     9.0720    10.3016   -46.8440
  465.0000    80.4566    10.2358     9.1219    10.3336   -46.8437
  465.1000    80.9575    10.2574     9.1219    10.3752   -46.8434
  465.2000    81.6097    10.2575     9.1679    10.3833   -46.8430
  465.3000    82.5018    10.2716     9.2575    10.4494   -46.7360
  465.4000    83.8074    10.3296     9.3410    10.5064   -46.6908
  465.5000    84.4749    10.3298     9.3813    10.5240   -46.6904
  465.6000    84.7891    10.3797     9.3813    10.5248   -46.6901
  465.7000    85.0501    10.4402     9.3813    10.5455   -46.6898
  465.8000    85.2398    10.5011     9.4288    10.6000   -46.6895
  465.9000    85.3466    10.5489     9.4473    10.6008   -46.6892
  466.0000    85.1568    10.5490     9.4730    10.6589   -46.6889
  466.1000    84.9315    10.5492     9.5285    10.7677   -46.6886
  466.2000    84.9315    10.5992     9.5807    10.8609   -46.6555
  466.3000    84.5840    10.6611     9.5807    10.9041   -46.5286
  466.4000    84.1693    10.7232     9.5807    10.9132   -46.3842
  466.5000    83.8630    10.7729     9.6181    10.9820   -46.2747
  466.6000    83.1048    10.7731     9.6480    11.0426   -46.2319
  466.7000    82.9149    10.7732     9.6480    11.1079   -46.2316
  466.8000    82.4218    10.8234     9.6480    11.1735   -46.1973
  466.9000    82.1918    10.8489     9.6480    11.2176   -46.0792
  467.0000    82.1172    10.8491     9.6480    11.2273   -46.0789
  467.1000    81.9635    10.8613     9.6480    11.2978   -46.0786
  467.2000    81.9635    10.9254     9.6480    11.4228   -46.0783
  467.3000    81.7761    10.9255     9.6480    11.4583   -46.0780
  467.4000    81.5863    10.9756     9.6480    11.4591   -46.0777
  467.5000    81.5069    11.0396     9.6480    11.4599   -46.0774
  467.6000    81.4350    11.0795     9.6480    11.4607   -46.0770
  467.7000    81.2785    11.0910     9.6480    11.4615   -46.0768
  467.8000    81.2785    11.1574     9.6480    11.5254   -46.0765
  467.9000    81.2785    11.1576     9.6480    11.5434   -46.1377
  468.0000    81.2785    11.1577     9.6480    11.5442   -46.2276
  468.1000    81.1709    11.1947     9.6480    11.5450   -46.2386
  468.2000    80.9811    11.2362     9.6974    11.5458   -46.3787
  468.3000    80.7607    11.2468     9.7159    11.5467   -46.4913
  468.4000    80.3653    11.3152     9.7159    11.5474   -46.6177
  468.5000    80.1834    11.3784     9.7361    11.5482   -46.6813
  468.6000    79.8502    11.3947     9.8099    11.5491   -46.7186
  468.7000    79.2609    11.3949     9.8837    11.5735   -46.8576
  468.8000    78.5681    11.4182     9.9224    11.6316   -47.1356
  468.9000    78.0265    11.4750     9.9224    11.6325   -47.2495
  469.0000    77.6256    11.4751     9.9224    11.6332   -47.3758
  469.1000    77.2673    11.4753     9.9224    11.6852   -47.5661
  469.2000    76.8877    11.4754     9.9734    11.7164   -47.7803
  469.3000    76.7123    11.4756     9.9922    11.7172   -47.8929
  469.4000    76.7123    11.4758    10.0483    11.7180   -47.8925
  469.5000    76.7123    11.4759    10.1332    11.7189   -47.8923
  469.6000    76.7123    11.4761    10.1379    11.7197   -47.8920
  469.7000    76.7123    11.4762    10.2045    11.7205   -47.8917
  469.8000    76.8502    11.4764    10.2045    11.7213   -47.8914
  469.9000    77.0400    11.4766    10.2452    11.7467   -47.8910
  470.0000    77.2907    11.4767    10.2763    11.8049   -47.8907
  470.1000    77.6480    11.4769    10.2932    11.7238   -47.7739
  470.2000    77.8539    11.4771    10.3535    11.7246   -47.7384
  470.3000    78.0275    11.4772    10.4214    11.6735   -47.6717
  470.4000    78.2173    11.5249    10.4214    11.6446   -47.5860
  470.5000    78.4071    11.5579    10.4214    11.6208   -47.5857
  470.6000    78.5388    11.5787    10.4214    11.5651   -47.5854
  470.7000    78.5388    11.6462    10.4214    11.5660   -47.5851
  470.8000    78.5388    11.7208    10.4214    11.5668   -47.5848
  470.9000    78.7098    11.7210    10.4214    11.5676   -47.5845
  471.0000    78.7671    11.7211    10.4754    11.5684   -47.6267
  471.1000    78.6732    11.7213    10.4947    11.5942   -47.7357
  471.2000    78.5388    11.7215    10.4651    11.6511   -47.7353
  471.3000    78.5219    11.7216    10.4214    11.6519   -47.7351
  471.4000    78.3105    11.7218    10.4214    11.7188   -47.8286
  471.5000    78.1423    11.7219    10.4214    11.7881   -47.8862
  471.6000    77.8229    11.7221    10.4214    11.8183   -47.8859
  471.7000    77.5344    11.7223    10.4214    11.8191   -47.8856
  471.8000    77.2919    11.7224    10.4214    11.8319   -47.8853
  471.9000    76.9123    11.7226    10.4214    11.9036   -48.0052
  472.0000    76.4840    11.7228    10.4214    11.9044   -48.0364
  472.1000    75.9876    11.7229    10.4214    11.9052   -48.1061
  472.2000    75.5452    11.7231    10.4214    11.9061   -48.2325
  472.3000    75.1656    11.7233    10.4214    11.9069   -48.3391
  472.4000    74.8360    11.7234    10.4214    11.9077   -48.3387
  472.5000    74.6575    11.7236    10.4214    11.9086   -48.3384
  472.6000    74.6575    11.7238    10.4214    11.9094   -48.4344
  472.7000    74.4948    11.7239    10.4214    11.9102   -48.4895
  472.8000    74.4292    11.7241    10.3673    11.9516   -48.4892
  472.9000    74.4292    11.7242    10.3486    11.9954   -48.4889
  473.0000    74.4764    11.7244    10.3486    11.9962   -48.4886
  473.1000    74.6575    11.7246    10.3310    11.9970   -48.4883
  473.2000    74.6575    11.7248    10.2763    11.9979   -48.4880
  473.3000    74.8175    11.7249    10.2763    11.9987   -48.4877
  473.4000    74.8858    11.7251    10.2763    11.9995   -48.4874
  473.5000    75.0518    11.7252    10.2763    12.0004   -48.4871
  473.6000    75.3869    11.7095    10.2763    11.9881   -48.4868
  473.7000    75.5708    11.6440    10.2763    11.9186   -48.3627
  473.8000    75.5708    11.6442    10.2763    11.9194   -48.3344
  473.9000    75.5708    11.5886    10.2763    11.9202   -48.2605
  474.0000    75.5708    11.5635    10.2763    11.8801   -48.1335
  474.1000    75.5708    11.5637    10.2346    11.8389   -48.0300
  474.2000    75.5291    11.5639    10.2045    11.8265   -48.0297
  474.3000    75.3362    11.5629    10.2045    11.7582   -47.9044
  474.4000    74.8858    11.4838    10.2045    11.7590   -47.8774
  474.5000    74.5769    11.5383    10.2045    11.7055   -47.8771
  474.6000    74.1973    11.5645    10.1512    11.6788   -47.8270
  474.7000    73.8951    11.5647    10.1332    11.6796   -47.6754
  474.8000    73.6663    11.5648    10.1038    11.6804   -47.4209
  474.9000    73.2872    11.5652    10.0449    11.6813   -47.2944
  475.0000    73.0974    11.6326     9.9922    11.6822   -47.2686
  475.1000    73.0594    11.6463     9.9922    11.7375   -47.1922
  475.2000    73.0594    11.6465     9.9398    11.7656   -47.0143
  475.3000    73.0594    11.6466     9.9224    11.7664   -46.7865
  475.4000    73.0594    11.6468     9.9224    11.7672   -46.6604
  475.5000    73.0594    11.6469     9.9224    11.7680   -46.6600
  475.6000    73.0594    11.6471     9.9224    11.7690   -46.6598
  475.7000    73.0594    11.6473     9.9224    11.7697   -46.5822
