~VERSION INFORMATION
 VERS.                2.0:   CWLS LOG ASCII STANDARD - VERSION 2.0
 WRAP.                 NO:   ONE LINE PER DEPTH STEP
~WELL INFORMATION
#MNEM.UNIT      DATA TYPE    INFORMATION
#----------   ------------   ------------------------------
 STRT.F            0.0000:   START DEPTH
 STOP.F          540.0000:   STOP DEPTH
 STEP.F            0.1000:   STEP LENGTH
 NULL.          -999.2500:   NO VALUE
 COMP.       F D SERV INC:   COMPANY
 WELL.      77-1 X3 #77-3:   WELL
 FLD .             TEAPOT:   FIELD
 LOC .       S3 T38N R78W:   LOCATION
 CNTY.            NATRONA:   COUNTY
 STAT.            WYOMING:   STATE
 CTRY. UNITED STATES OF AMERICA:   COUNTRY
 SRVC.     Atlas Wireline:   SERVICE COMPANY
 DATE.        20-DEC-1991:   LOGDATE
 API .       490252249300:   API NUMBER
~CURVE INFORMATION
#MNEM.UNIT       API CODE    CURVE DESCRIPTION
#----------   ------------   ------------------------------
 DEPT.F                  :   
 GRR .GAPI   07 310 01 00:   GAMMA RAY
 RFOC.OHMM   07 270 04 00:   RESISTIVITY FOCUSED LOG
 RILD.OHMM   07 120 46 00:   INDUCTION LOG DEEP RESISTIVITY
 RILM.OHMM   07 120 44 00:   INDUCTION LOG MEDIUM RESISTIVITY
 SPR .MV     07 010 01 00:   SPONTANEOUS POTENTIAL
~PARAMETER INFORMATION
#MNEM.UNIT          VALUE    DESCRIPTION
#----------   ------------   ------------------------------
 PD  .                 GL:   PERMANENT DATUM
 EPD .F              5161:   ELEVATION PERMANENT DATUM
 LMF .                 KB:   LOG MEASURED FROM
 DAPD.F                10:   FEET ABOVE PERMANENT DATUM
 DMF .                 KB:   DRILLING MEASURED FROM
 EKB .F              5171:   KELLING BUSHING
 EGL .F              5161:   GROUND LEVEL
 DATE.        20-DEC-1991:   RUN DATE
 RUN .                  1:   RUN NUMBER
 DD  .F               545:   DEPTH DRILLER
 DL  .F               543:   DEPTH LOGGER
 BLI .F               540:   BOTTOM LOG INTERVAL
 CS  .IN            8.625:   CASING SIZE
 CBD .F               175:   CASING BOTTOM DRILLER
 CBL .F               172:   CASING BOTTOM LOGGER
 BS  .IN            7.875:   BIT SIZE
 BSD .F               545:   BIT SIZE AT DEPTH
 DFT .           CHEM GEL:   DRILLING FLUID TYPE
 DFD .               16.8:   DRILLING FLUID DENSITY
 DFV .                 53:   DRILLING FLUID VISCOSITY
 DFPH.                  9:   DRILLING FLUID PH
 DFL .                  8:   DRILLING FLUID LOSS
 MSS .           FLOWLINE:   MUD SAMPLE SOURCE
 RMS .OHMM           1.55:   RESISTIVITY MUD SAMPLE
 MST .F                58:   MUD SAMPLE TEMPERATURE
 RMF .OHMM           1.16:   RESISTIVITY MUD FILTRATE SAMPLE
 MFST.F                58:   MUD FILTRATE SAMPLE TEMPERATURE
 RMC .OHMM           1.93:   RESISTIVITY MUD CAKE
 MCST.F                58:   MUD CAKE SAMPLE TEMPERATURE
 MFSS.               CALC:   MUD FILTRATE SAMPLE SOURCE
 MCSS.               CALC:   MUD CAKE SAMPLE SOURCE
 TCS .HRS               2:   TIME CURCULATED STOPPED
 MRT .F               100:   MAXIMUM RECORDED TEMPERATURE
 LUN .            HL 6307:   LOGGING UNIT NUMBER
 LUL .             CASPER:   LOGGING UNIT LOCATION
 ENGI.            WADDELL:   RECORDING ENGINEER
 WITN.             STRONG:   WITNESSED BY
 CLNT.            A2DTECH:   CLIENT CODE
 ORIG.           5" PRINT:   ORIGIN OF DATA
 UWI .       490252249300:   UNIQUE WELL ID
 DICO. A2D Technologies, Inc.:   DIGITIZING COMPANY
~OTHER INFORMATION
~A    DEPT      GRR      RFOC       RILD       RILM        SPR   
# ...
  329.4000    70.2256     7.6923     6.5320     7.2616   -54.5033
  329.5000    70.2260     7.7182     6.6084     7.3045   -54.6282
  329.6000    70.3166     7.7188     6.6543     7.3406   -54.6282
  329.7000    70.4553     7.7212     6.6543     7.3411   -54.7302
  329.8000    70.4557     7.7743     6.6789     7.3416   -54.8564
  329.9000    70.4562     7.8512     6.7182     7.3421   -54.9826
  330.0000    70.4566     7.8847     6.7577     7.3666   -55.0835
  330.1000    70.4571     7.9057     6.7975     7.4101   -55.0835
  330.2000    70.5495     7.9525     6.8435     7.4538   -55.2094
  330.3000    70.7405     7.9976     6.8778     7.4997   -55.2352
  330.4000    70.9315     7.9983     6.9182     7.5002   -55.3101
  330.5000    71.1439     8.0383     6.9590     7.5338   -55.4363
  330.6000    71.1443     8.0556     6.9999     7.5538   -55.5625
  330.7000    71.1448     8.0563     7.0381     7.5699   -55.6904
  330.8000    71.1452     8.0685     7.0381     7.6215   -55.6904
  330.9000    71.1457     8.1140     7.0745     7.7153   -55.6904
  331.0000    71.1461     8.1148     7.1162     7.7587   -55.6904
  331.1000    71.1466     8.1556     7.1580     7.7705   -55.7382
  331.2000    70.9760     8.1729     7.2002     7.7960   -55.8422
  331.3000    70.7858     8.1736     7.2425     7.8581   -55.8422
  331.4000    70.5957     8.1862     7.2891     7.9435   -55.8422
  331.5000    70.3478     8.2372     7.3673     7.9928   -55.8422
  331.6000    69.9471     8.3487     7.4231     7.9933   -55.8422
  331.7000    69.3229     8.3908     7.4440     8.0638   -55.8422
  331.8000    68.6316     8.4729     7.4582     8.1327   -55.8422
  331.9000    67.8699     8.5728     7.5021     8.1807   -55.8422
  332.0000    66.8157     8.6479     7.5491     8.2290   -55.8422
  332.1000    65.5418     8.6515     7.5907     8.2803   -55.9380
  332.2000    64.4649     8.7100     7.5692     8.3723   -55.9939
  332.3000    63.8462     8.7982     7.5249     8.4342   -55.9939
  332.4000    63.4972     8.8338     7.4964     8.4840   -55.9939
  332.5000    63.2534     8.8345     7.4964     8.5511   -55.9939
  332.6000    63.0633     8.8352     7.4964     8.6446   -55.9939
  332.7000    62.9347     8.8360     7.4964     8.6987   -55.9939
  332.8000    62.9589     8.8368     7.5646     8.6993   -55.9939
  332.9000    63.1640     8.8375     7.6280     8.7373   -55.9939
  333.0000    63.3409     8.8382     7.6729     8.7889   -56.0116
  333.1000    63.6708     8.8389     7.7266     8.8407   -56.1457
  333.2000    64.0524     8.8397     7.8184     8.8929   -56.1457
  333.3000    64.4974     8.8404     7.8641     8.9489   -56.1457
  333.4000    65.0695     8.8412     7.9853     8.9494   -56.1457
  333.5000    65.6781     8.8867     8.0693     8.9883   -56.1874
  333.6000    65.8569     8.9045     8.1168     9.0414   -56.2974
  333.7000    66.0479     8.9297     8.1751     9.0947   -56.2974
  333.8000    66.2390     8.9968     8.2704     9.1484   -56.2974
  333.9000    66.4300     9.0952     8.3275     9.2062   -56.3887
  334.0000    66.5936     9.0961     8.3275     9.2068   -56.4492
  334.1000    66.5941     9.1430     8.3585     9.2074   -56.4492
  334.2000    66.5945     9.1612     8.4077     9.2649   -56.4638
  334.3000    66.5950     9.1619     8.4572     9.3560   -56.6009
  334.4000    66.5954     9.1627     8.5070     9.4112   -56.6009
  334.5000    66.5959     9.1635     8.5642     9.4709   -56.6907
  334.6000    66.5963     9.1643     8.5642     9.4715   -56.7527
  334.7000    66.5968     9.1650     8.6313     9.5122   -56.7913
  334.8000    66.4153     9.1658     8.7091     9.5975   -56.9044
  334.9000    66.2251     9.2180     8.7603     9.6741   -56.9044
  335.0000    66.0350     9.3266     8.8119     9.6815   -56.9044
  335.1000    65.9137     9.4410     8.8697     9.7433   -56.9044
  335.2000    65.9142     9.6279     8.9160     9.7962   -56.9671
  335.3000    65.9146     9.8800     8.9685     9.8540   -57.0562
  335.4000    65.9151    10.1320     9.0478     9.9121   -57.0794
  335.5000    65.9155    10.3418     9.1545     9.9706   -57.3596
  335.6000    65.9160    10.4722     9.2566    10.0294   -57.3596
  335.7000    65.9164    10.4678     9.3158    10.0937   -57.4464
  335.8000    65.9169    10.4012     9.3659    10.2024   -57.5114
  335.9000    65.9174    10.2954     9.4611    10.2796   -57.5470
  336.0000    66.1035    10.2178     9.5432    10.3403   -57.6631
  336.1000    66.1466    10.1593     9.5993    10.4203   -57.6631
  336.2000    66.3674    10.1012     9.6480    10.5360   -57.6631
  336.3000    66.6041    10.0434     9.6480    10.6038   -57.7484
  336.4000    66.6392     9.9797     9.7016    10.6044   -57.8149
  336.5000    66.8333    10.0324     9.7159    10.6932   -57.8490
  336.6000    66.8338    10.0918     9.7159    10.7869   -57.9666
  336.7000    66.9840    10.1516     9.7159    10.8506   -57.9666
  336.8000    67.1750    10.2471     9.7065    10.9146   -58.0759
  336.9000    67.3661    10.4340     9.6480    10.9851   -58.1184
  337.0000    67.5571    10.7063     9.6480    11.0438   -58.1184
  337.1000    67.7493    10.8764     9.6480    11.1090   -58.1184
  337.2000    67.7498    10.9790     9.6480    11.1746   -58.1184
  337.3000    67.7502    11.0440     9.6701    11.2207   -58.1184
  337.4000    67.8646    11.1094     9.7270    11.2215   -58.1184
  337.5000    67.9034    11.1686     9.7843    11.2224   -58.1184
  337.6000    67.7516    11.1697     9.7843    11.2820   -58.1184
  337.7000    67.7521    11.1705     9.8307    11.3486   -58.1495
  337.8000    67.7526    11.1714     9.8531    11.4156   -58.2701
  337.9000    67.5995    11.1398     9.9017    11.4631   -58.2701
  338.0000    67.1780    11.0956    10.0053    11.4703   -58.2701
  338.1000    66.4509    11.0965    10.0642    11.5451   -58.2701
  338.2000    65.5389    11.0976    10.1332    11.5458   -58.3252
  338.3000    64.7819    11.0984    10.1830    11.5466   -58.4218
  338.4000    64.3307    11.0993    10.2817    11.5474   -58.4259
  338.5000    64.1758    11.0676    10.3758    11.5679   -58.5736
  338.6000    63.9857    11.0043    10.4214    11.6362   -58.6783
  338.7000    63.8753    10.9413    10.4214    11.7124   -58.7253
  338.8000    63.8758    10.8731    10.4214    11.7131   -58.7253
  338.9000    63.8805    10.8740    10.4214    11.7610   -58.7253
  339.0000    64.1051    10.8749    10.4624    11.7968   -58.7253
  339.1000    64.1055    10.8758    10.5240    11.7977   -58.7253
  339.2000    64.2253    10.8767    10.5859    11.8044   -58.8285
  339.3000    64.4163    10.8776    10.6482    11.8821   -58.8771
  339.4000    64.6073    10.8786    10.7177    11.8828   -58.8771
  339.5000    64.7922    10.8794    10.7740    11.8836   -58.8771
  339.6000    64.7928    10.8803    10.7931    11.8845   -58.8771
  339.7000    64.7931    10.8812    10.8251    11.9049   -58.8771
  339.8000    64.7936    10.8822    10.8690    11.9694   -58.8771
  339.9000    64.7941    10.8831    10.8690    11.9704   -58.8771
  340.0000    64.7489    10.8840    10.8690    12.0326   -58.8771
  340.1000    64.5587    10.9434    10.9279    12.1036   -58.8771
  340.2000    64.3389    10.9620    10.9455    12.1411   -58.8771
  340.3000    64.3393    10.9629    10.9455    12.1420   -58.8771
  340.4000    64.2168    10.9639    10.9455    12.1428   -58.8771
  340.5000    64.1119    10.9727    10.9455    12.1438   -58.8771
  340.6000    64.1123    11.0425    10.9455    12.2066   -58.9262
  340.7000    64.1128    11.1030    11.0066    12.2305   -59.0288
  340.8000    64.1133    11.1217    11.0224    12.2313   -59.0288
  340.9000    64.1137    11.1226    11.0224    12.2322   -59.0288
  341.0000    64.1142    11.1235    11.0224    12.2331   -59.0288
  341.1000    64.1146    11.1328    11.0224    12.2340   -59.0288
  341.2000    64.1151    11.2033    11.0224    12.2969   -59.0288
  341.3000    64.1155    11.2042    11.0224    12.3214   -59.0288
  341.4000    64.1160    11.2052    11.0733    12.3560   -59.0288
  341.5000    64.2808    11.2061    11.1000    12.4094   -59.0288
